{
  "iso2": "AR",
  "name": "Argentina",
  "nativeName": "Argentina",
  "lat": -34,
  "lon": -64,
  "states": [
    {
      "name": "Buenos Aires",
      "stateCode": "B",
      "lat": -37.2017285,
      "lon": -59.8410697,
      "cities": [
        {
          "name": "Balvanera",
          "lat": -34.61032,
          "lon": -58.39766
        },
        {
          "name": "Barracas",
          "lat": -34.64966,
          "lon": -58.38341
        },
        {
          "name": "Belgrano",
          "lat": -34.5627,
          "lon": -58.45829
        },
        {
          "name": "Boedo",
          "lat": -34.63333,
          "lon": -58.41667
        },
        {
          "name": "Buenos Aires",
          "lat": -34.61315,
          "lon": -58.37723
        },
        {
          "name": "Colegiales",
          "lat": -34.57365,
          "lon": -58.44924
        },
        {
          "name": "Retiro",
          "lat": -34.58333,
          "lon": -58.38333
        },
        {
          "name": "Villa Lugano",
          "lat": -34.67907,
          "lon": -58.47263
        },
        {
          "name": "Villa Ortúzar",
          "lat": -34.57973,
          "lon": -58.46829
        },
        {
          "name": "Villa Santa Rita",
          "lat": -34.61082,
          "lon": -58.481
        }
      ]
    },
    {
      "name": "Catamarca",
      "stateCode": "K",
      "lat": -28.4715877,
      "lon": -65.7877209,
      "cities": [
        {
          "name": "Ancasti",
          "lat": -28.81247,
          "lon": -65.50145
        },
        {
          "name": "Andalgalá",
          "lat": -27.58185,
          "lon": -66.31626
        },
        {
          "name": "Antofagasta de la Sierra",
          "lat": -26.0594,
          "lon": -67.40636
        },
        {
          "name": "Capayán",
          "lat": -28.77436,
          "lon": -66.04749
        },
        {
          "name": "Departamento de Ambato",
          "lat": -28,
          "lon": -65.91667
        },
        {
          "name": "Departamento de Ancasti",
          "lat": -29,
          "lon": -65.5
        },
        {
          "name": "Departamento de Andalgalá",
          "lat": -27.58333,
          "lon": -66.46667
        },
        {
          "name": "Departamento de Antofagasta de la Sierra",
          "lat": -26,
          "lon": -67.58333
        },
        {
          "name": "Departamento de Capayán",
          "lat": -28.83333,
          "lon": -66
        },
        {
          "name": "Departamento de Capital",
          "lat": -28.41667,
          "lon": -65.8
        },
        {
          "name": "Departamento de El Alto",
          "lat": -28.41667,
          "lon": -65.41667
        },
        {
          "name": "Departamento de Fray Mamerto Esquiú",
          "lat": -28.3,
          "lon": -65.75
        },
        {
          "name": "Departamento de La Paz",
          "lat": -29.25,
          "lon": -65.25
        },
        {
          "name": "Departamento de Pomán",
          "lat": -28.25,
          "lon": -66.41667
        },
        {
          "name": "Departamento de Santa María",
          "lat": -26.66667,
          "lon": -66.41667
        },
        {
          "name": "Departamento de Santa Rosa",
          "lat": -28.08333,
          "lon": -65.25
        },
        {
          "name": "Departamento de Tinogasta",
          "lat": -27.5,
          "lon": -68
        },
        {
          "name": "Departamento de Valle Viejo",
          "lat": -28.58333,
          "lon": -65.75
        },
        {
          "name": "El Rodeo",
          "lat": -28.21518,
          "lon": -65.8742
        },
        {
          "name": "Fiambalá",
          "lat": -27.67225,
          "lon": -67.6187
        },
        {
          "name": "Hualfín",
          "lat": -27.22896,
          "lon": -66.83131
        },
        {
          "name": "Huillapima",
          "lat": -28.72533,
          "lon": -65.9787
        },
        {
          "name": "Icaño",
          "lat": -28.91934,
          "lon": -65.32817
        },
        {
          "name": "La Puerta de San José",
          "lat": -27.55,
          "lon": -67.01667
        },
        {
          "name": "Londres",
          "lat": -27.71439,
          "lon": -67.13349
        },
        {
          "name": "Los Altos",
          "lat": -28.04845,
          "lon": -65.49945
        },
        {
          "name": "Los Varela",
          "lat": -27.93003,
          "lon": -65.87153
        },
        {
          "name": "Mutquín",
          "lat": -28.32104,
          "lon": -66.14253
        },
        {
          "name": "Pomán",
          "lat": -28.39455,
          "lon": -66.22052
        },
        {
          "name": "Puerta de Corral Quemado",
          "lat": -27.23,
          "lon": -66.93635
        },
        {
          "name": "Recreo",
          "lat": -29.28184,
          "lon": -65.06096
        },
        {
          "name": "San Antonio",
          "lat": -28.01009,
          "lon": -65.70874
        },
        {
          "name": "San Fernando del Valle de Catamarca",
          "lat": -28.46957,
          "lon": -65.78524
        },
        {
          "name": "Santa María",
          "lat": -26.69547,
          "lon": -66.04732
        },
        {
          "name": "Tinogasta",
          "lat": -28.06319,
          "lon": -67.56488
        }
      ]
    },
    {
      "name": "Chaco",
      "stateCode": "H",
      "lat": -27.4257175,
      "lon": -59.0243784,
      "cities": [
        {
          "name": "Aviá Terai",
          "lat": -26.68532,
          "lon": -60.7292
        },
        {
          "name": "Barranqueras",
          "lat": -27.48132,
          "lon": -58.93925
        },
        {
          "name": "Basail",
          "lat": -27.88539,
          "lon": -59.28245
        },
        {
          "name": "Campo Largo",
          "lat": -26.80077,
          "lon": -60.84215
        },
        {
          "name": "Capitán Solari",
          "lat": -26.80215,
          "lon": -59.56089
        },
        {
          "name": "Castelli",
          "lat": -25.94679,
          "lon": -60.61947
        },
        {
          "name": "Charadai",
          "lat": -27.65503,
          "lon": -59.86291
        },
        {
          "name": "Charata",
          "lat": -27.21438,
          "lon": -61.18795
        },
        {
          "name": "Chorotis",
          "lat": -27.91578,
          "lon": -61.39982
        },
        {
          "name": "Ciervo Petiso",
          "lat": -26.58041,
          "lon": -59.63094
        },
        {
          "name": "Colonia Benítez",
          "lat": -27.33099,
          "lon": -58.94622
        },
        {
          "name": "Colonia Elisa",
          "lat": -26.93041,
          "lon": -59.51861
        },
        {
          "name": "Colonias Unidas",
          "lat": -26.69825,
          "lon": -59.63154
        },
        {
          "name": "Concepción del Bermejo",
          "lat": -26.59926,
          "lon": -60.94617
        },
        {
          "name": "Coronel Du Graty",
          "lat": -27.68038,
          "lon": -60.91462
        },
        {
          "name": "Corzuela",
          "lat": -26.95374,
          "lon": -60.96928
        },
        {
          "name": "Coté-Lai",
          "lat": -27.5,
          "lon": -59.6
        },
        {
          "name": "Departamento de Almirante Brown",
          "lat": -25.81662,
          "lon": -61.45576
        },
        {
          "name": "Departamento de Bermejo",
          "lat": -27,
          "lon": -58.66667
        },
        {
          "name": "Departamento de Comandante Fernández",
          "lat": -26.83333,
          "lon": -60.5
        },
        {
          "name": "Departamento de Doce de Octubre",
          "lat": -27.41667,
          "lon": -61.33333
        },
        {
          "name": "Departamento de Dos de Abril",
          "lat": -27.60932,
          "lon": -61.34473
        },
        {
          "name": "Departamento de General Donovan",
          "lat": -27.16667,
          "lon": -59.33333
        },
        {
          "name": "Departamento de General Güemes",
          "lat": -25.16667,
          "lon": -61.41667
        },
        {
          "name": "Departamento de Independencia",
          "lat": -26.66667,
          "lon": -60.66667
        },
        {
          "name": "Departamento de Libertad",
          "lat": -27.33333,
          "lon": -59.33333
        },
        {
          "name": "Departamento de Maipú",
          "lat": -26.33333,
          "lon": -60.41667
        },
        {
          "name": "Departamento de Nueve de Julio",
          "lat": -26.95331,
          "lon": -61.27627
        },
        {
          "name": "Departamento de O’Higgins",
          "lat": -27.25,
          "lon": -60.66667
        },
        {
          "name": "Departamento de Presidencia de la Plaza",
          "lat": -27,
          "lon": -59.75
        },
        {
          "name": "Departamento de Quitilipi",
          "lat": -26.66667,
          "lon": -60.16667
        },
        {
          "name": "Departamento de San Fernando",
          "lat": -27.66667,
          "lon": -59.16667
        },
        {
          "name": "Departamento de San Lorenzo",
          "lat": -27.33333,
          "lon": -60.41667
        },
        {
          "name": "Departamento de Sargento Cabral",
          "lat": -26.83333,
          "lon": -59.5
        },
        {
          "name": "Departamento de Tapenagá",
          "lat": -27.5,
          "lon": -59.75
        },
        {
          "name": "Fontana",
          "lat": -27.41813,
          "lon": -59.02392
        },
        {
          "name": "Gancedo",
          "lat": -27.49038,
          "lon": -61.67571
        },
        {
          "name": "General José de San Martín",
          "lat": -26.53743,
          "lon": -59.34158
        },
        {
          "name": "General Pinedo",
          "lat": -27.31667,
          "lon": -61.28333
        },
        {
          "name": "General Vedia",
          "lat": -26.93382,
          "lon": -58.6604
        },
        {
          "name": "Hermoso Campo",
          "lat": -27.60816,
          "lon": -61.34441
        },
        {
          "name": "La Clotilde",
          "lat": -27.13333,
          "lon": -60.66667
        },
        {
          "name": "La Eduvigis",
          "lat": -26.83607,
          "lon": -59.06211
        },
        {
          "name": "La Escondida",
          "lat": -27.10724,
          "lon": -59.44784
        },
        {
          "name": "La Leonesa",
          "lat": -27.03786,
          "lon": -58.70347
        },
        {
          "name": "La Tigra",
          "lat": -27.10996,
          "lon": -60.58719
        },
        {
          "name": "La Verde",
          "lat": -27.12634,
          "lon": -59.37352
        },
        {
          "name": "Laguna Limpia",
          "lat": -26.49565,
          "lon": -59.68083
        },
        {
          "name": "Lapachito",
          "lat": -27.15997,
          "lon": -59.38605
        },
        {
          "name": "Las Breñas",
          "lat": -27.08966,
          "lon": -61.08161
        },
        {
          "name": "Las Garcitas",
          "lat": -26.61802,
          "lon": -59.80135
        },
        {
          "name": "Los Frentones",
          "lat": -26.4077,
          "lon": -61.41367
        },
        {
          "name": "Machagai",
          "lat": -26.92614,
          "lon": -60.04955
        },
        {
          "name": "Makallé",
          "lat": -27.20687,
          "lon": -59.28696
        },
        {
          "name": "Margarita Belén",
          "lat": -27.2616,
          "lon": -58.97219
        },
        {
          "name": "Napenay",
          "lat": -26.73333,
          "lon": -60.61667
        },
        {
          "name": "Pampa Almirón",
          "lat": -26.70039,
          "lon": -59.12331
        },
        {
          "name": "Pampa del Indio",
          "lat": -26.04982,
          "lon": -59.93728
        },
        {
          "name": "Pampa del Infierno",
          "lat": -26.50517,
          "lon": -61.17436
        },
        {
          "name": "Presidencia de la Plaza",
          "lat": -27.00147,
          "lon": -59.84243
        },
        {
          "name": "Presidencia Roca",
          "lat": -26.1409,
          "lon": -59.59541
        },
        {
          "name": "Presidencia Roque Sáenz Peña",
          "lat": -26.78522,
          "lon": -60.43876
        },
        {
          "name": "Puerto Bermejo",
          "lat": -26.92739,
          "lon": -58.50917
        },
        {
          "name": "Puerto Tirol",
          "lat": -27.37218,
          "lon": -59.08206
        },
        {
          "name": "Puerto Vilelas",
          "lat": -27.51414,
          "lon": -58.93906
        },
        {
          "name": "Quitilipi",
          "lat": -26.86913,
          "lon": -60.21683
        },
        {
          "name": "Resistencia",
          "lat": -27.46056,
          "lon": -58.98389
        },
        {
          "name": "Samuhú",
          "lat": -27.52116,
          "lon": -60.39167
        },
        {
          "name": "San Bernardo",
          "lat": -27.28782,
          "lon": -60.71252
        },
        {
          "name": "Santa Sylvina",
          "lat": -27.83261,
          "lon": -61.13747
        },
        {
          "name": "Taco Pozo",
          "lat": -25.61557,
          "lon": -63.26708
        },
        {
          "name": "Tres Isletas",
          "lat": -26.34067,
          "lon": -60.43207
        },
        {
          "name": "Villa Ángela",
          "lat": -27.57383,
          "lon": -60.71526
        },
        {
          "name": "Villa Berthet",
          "lat": -27.29174,
          "lon": -60.41263
        }
      ]
    },
    {
      "name": "Chubut",
      "stateCode": "U",
      "lat": -43.2934246,
      "lon": -65.1114818,
      "cities": [
        {
          "name": "Alto Río Senguer",
          "lat": -45.04105,
          "lon": -70.81982
        },
        {
          "name": "Camarones",
          "lat": -44.79709,
          "lon": -65.70994
        },
        {
          "name": "Comodoro Rivadavia",
          "lat": -45.86413,
          "lon": -67.49656
        },
        {
          "name": "Departamento de Biedma",
          "lat": -42.41667,
          "lon": -65
        },
        {
          "name": "Departamento de Cushamen",
          "lat": -42.5,
          "lon": -70.83333
        },
        {
          "name": "Departamento de Escalante",
          "lat": -45.33333,
          "lon": -67.33333
        },
        {
          "name": "Departamento de Florentino Ameghino",
          "lat": -44.41667,
          "lon": -66.16667
        },
        {
          "name": "Departamento de Futaleufú",
          "lat": -43.08333,
          "lon": -71.41667
        },
        {
          "name": "Departamento de Gaimán",
          "lat": -43.33333,
          "lon": -66.33333
        },
        {
          "name": "Departamento de Gastre",
          "lat": -42.83333,
          "lon": -68.66667
        },
        {
          "name": "Departamento de Languiñeo",
          "lat": -43.33333,
          "lon": -70.66667
        },
        {
          "name": "Departamento de Mártires",
          "lat": -43.83333,
          "lon": -67.16667
        },
        {
          "name": "Departamento de Paso de Indios",
          "lat": -44,
          "lon": -68.83333
        },
        {
          "name": "Departamento de Rawson",
          "lat": -43.12342,
          "lon": -65.10179
        },
        {
          "name": "Departamento de Río Senguerr",
          "lat": -45.33333,
          "lon": -70.83333
        },
        {
          "name": "Departamento de Sarmiento",
          "lat": -45.33333,
          "lon": -69
        },
        {
          "name": "Departamento de Tehuelches",
          "lat": -44.22132,
          "lon": -70.2526
        },
        {
          "name": "Departamento de Telsen",
          "lat": -42.41667,
          "lon": -67.16667
        },
        {
          "name": "Dolavón",
          "lat": -43.30684,
          "lon": -65.70651
        },
        {
          "name": "El Maitén",
          "lat": -42.04924,
          "lon": -71.16693
        },
        {
          "name": "Esquel",
          "lat": -42.91147,
          "lon": -71.31947
        },
        {
          "name": "Gaimán",
          "lat": -43.2897,
          "lon": -65.4929
        },
        {
          "name": "Gastre",
          "lat": -42.26186,
          "lon": -69.22112
        },
        {
          "name": "Gobernador Costa",
          "lat": -44.04992,
          "lon": -70.59798
        },
        {
          "name": "Hoyo de Epuyén",
          "lat": -42.07189,
          "lon": -71.50811
        },
        {
          "name": "José de San Martín",
          "lat": -44.05032,
          "lon": -70.46967
        },
        {
          "name": "Lago Puelo",
          "lat": -42.06684,
          "lon": -71.60384
        },
        {
          "name": "Las Plumas",
          "lat": -43.72058,
          "lon": -67.28319
        },
        {
          "name": "Puerto Madryn",
          "lat": -42.7692,
          "lon": -65.03851
        },
        {
          "name": "Rada Tilly",
          "lat": -45.92462,
          "lon": -67.55424
        },
        {
          "name": "Rawson",
          "lat": -43.30016,
          "lon": -65.10228
        },
        {
          "name": "Río Mayo",
          "lat": -45.68573,
          "lon": -70.25797
        },
        {
          "name": "Río Pico",
          "lat": -44.17905,
          "lon": -71.36847
        },
        {
          "name": "Sarmiento",
          "lat": -45.58815,
          "lon": -69.06996
        },
        {
          "name": "Tecka",
          "lat": -43.49489,
          "lon": -70.8102
        },
        {
          "name": "Trelew",
          "lat": -43.24895,
          "lon": -65.30505
        },
        {
          "name": "Trevelin",
          "lat": -43.0858,
          "lon": -71.46386
        }
      ]
    },
    {
      "name": "Ciudad Autónoma de Buenos Aires",
      "stateCode": "C",
      "lat": -34.6036844,
      "lon": -58.3815591,
      "cities": []
    },
    {
      "name": "Córdoba",
      "stateCode": "X",
      "lat": -31.3992876,
      "lon": -64.2643842,
      "cities": [
        {
          "name": "Achiras",
          "lat": -33.17538,
          "lon": -64.99331
        },
        {
          "name": "Adelia María",
          "lat": -33.63152,
          "lon": -64.02097
        },
        {
          "name": "Agua de Oro",
          "lat": -31.06661,
          "lon": -64.30017
        },
        {
          "name": "Alejandro Roca",
          "lat": -33.35369,
          "lon": -63.71849
        },
        {
          "name": "Alejo Ledesma",
          "lat": -33.60643,
          "lon": -62.62304
        },
        {
          "name": "Almafuerte",
          "lat": -32.19296,
          "lon": -64.25559
        },
        {
          "name": "Alta Gracia",
          "lat": -31.65292,
          "lon": -64.42826
        },
        {
          "name": "Altos de Chipión",
          "lat": -30.9559,
          "lon": -62.33727
        },
        {
          "name": "Arias",
          "lat": -33.64411,
          "lon": -62.40272
        },
        {
          "name": "Arroyito",
          "lat": -31.42022,
          "lon": -63.05002
        },
        {
          "name": "Arroyo Cabral",
          "lat": -32.49119,
          "lon": -63.40126
        },
        {
          "name": "Balnearia",
          "lat": -31.0088,
          "lon": -62.66733
        },
        {
          "name": "Bell Ville",
          "lat": -32.62591,
          "lon": -62.68873
        },
        {
          "name": "Berrotarán",
          "lat": -32.451,
          "lon": -64.38867
        },
        {
          "name": "Brinkmann",
          "lat": -30.86589,
          "lon": -62.03742
        },
        {
          "name": "Buchardo",
          "lat": -34.72263,
          "lon": -63.5092
        },
        {
          "name": "Camilo Aldao",
          "lat": -33.12745,
          "lon": -62.09453
        },
        {
          "name": "Cañada de Luque",
          "lat": -30.73341,
          "lon": -63.72375
        },
        {
          "name": "Canals",
          "lat": -33.56542,
          "lon": -62.88927
        },
        {
          "name": "Capilla del Monte",
          "lat": -30.86088,
          "lon": -64.52515
        },
        {
          "name": "Carnerillo",
          "lat": -32.91371,
          "lon": -64.02175
        },
        {
          "name": "Carrilobo",
          "lat": -31.87296,
          "lon": -63.11715
        },
        {
          "name": "Cavanagh",
          "lat": -33.47606,
          "lon": -62.33888
        },
        {
          "name": "Charras",
          "lat": -33.024,
          "lon": -64.04719
        },
        {
          "name": "Chazón",
          "lat": -33.07872,
          "lon": -63.27657
        },
        {
          "name": "Cintra",
          "lat": -32.30673,
          "lon": -62.65214
        },
        {
          "name": "Colonia La Tordilla",
          "lat": -31.23746,
          "lon": -63.06134
        },
        {
          "name": "Colonia San Bartolomé",
          "lat": -31.5278,
          "lon": -62.72436
        },
        {
          "name": "Córdoba",
          "lat": -31.4135,
          "lon": -64.18105
        },
        {
          "name": "Coronel Baigorria",
          "lat": -32.8477,
          "lon": -64.36107
        },
        {
          "name": "Coronel Moldes",
          "lat": -33.6227,
          "lon": -64.59711
        },
        {
          "name": "Corral de Bustos",
          "lat": -33.28205,
          "lon": -62.18463
        },
        {
          "name": "Corralito",
          "lat": -32.02462,
          "lon": -64.19216
        },
        {
          "name": "Cosquín",
          "lat": -31.24508,
          "lon": -64.46563
        },
        {
          "name": "Costa Sacate",
          "lat": -31.6477,
          "lon": -63.75935
        },
        {
          "name": "Cruz Alta",
          "lat": -33.00887,
          "lon": -61.80746
        },
        {
          "name": "Cruz del Eje",
          "lat": -30.72644,
          "lon": -64.80387
        },
        {
          "name": "Cuesta Blanca",
          "lat": -31.48658,
          "lon": -64.5715
        },
        {
          "name": "Dalmacio Vélez Sársfield",
          "lat": -32.61072,
          "lon": -63.58038
        },
        {
          "name": "Deán Funes",
          "lat": -30.42036,
          "lon": -64.34984
        },
        {
          "name": "Del Campillo",
          "lat": -34.37659,
          "lon": -64.49504
        },
        {
          "name": "Departamento de Calamuchita",
          "lat": -32.25,
          "lon": -64.58333
        },
        {
          "name": "Departamento de Colón",
          "lat": -31.16667,
          "lon": -64.16667
        },
        {
          "name": "Departamento de Cruz del Eje",
          "lat": -30.75,
          "lon": -65
        },
        {
          "name": "Departamento de General Roca",
          "lat": -34.66667,
          "lon": -64.25
        },
        {
          "name": "Departamento de General San Martín",
          "lat": -32.5,
          "lon": -63.33333
        },
        {
          "name": "Departamento de Juárez Celman",
          "lat": -33.33333,
          "lon": -63.66667
        },
        {
          "name": "Departamento de Marcos Juárez",
          "lat": -33,
          "lon": -62.25
        },
        {
          "name": "Departamento de Minas",
          "lat": -31,
          "lon": -65.33333
        },
        {
          "name": "Departamento de Presidente Roque Sáenz Peña",
          "lat": -34.25,
          "lon": -63.5
        },
        {
          "name": "Departamento de Río Cuarto",
          "lat": -33.33333,
          "lon": -64.5
        },
        {
          "name": "Departamento de Río Primero",
          "lat": -31.08333,
          "lon": -63.5
        },
        {
          "name": "Departamento de Río Seco",
          "lat": -30.08333,
          "lon": -63
        },
        {
          "name": "Departamento de Río Segundo",
          "lat": -31.75,
          "lon": -63.5
        },
        {
          "name": "Departamento de San Alberto",
          "lat": -31.75,
          "lon": -65.25
        },
        {
          "name": "Departamento de San Javier",
          "lat": -32.08333,
          "lon": -65.16667
        },
        {
          "name": "Departamento de San Justo",
          "lat": -31.33333,
          "lon": -62.66667
        },
        {
          "name": "Departamento de Sobremonte",
          "lat": -29.66667,
          "lon": -64.08333
        },
        {
          "name": "Departamento de Totoral",
          "lat": -30.83333,
          "lon": -63.91667
        },
        {
          "name": "Departamento de Tulumba",
          "lat": -30.25,
          "lon": -63.91667
        },
        {
          "name": "Departamento de Unión",
          "lat": -32.83333,
          "lon": -62.75
        },
        {
          "name": "Despeñaderos",
          "lat": -31.81626,
          "lon": -64.28989
        },
        {
          "name": "Devoto",
          "lat": -31.40431,
          "lon": -62.30634
        },
        {
          "name": "El Arañado",
          "lat": -31.7412,
          "lon": -62.89322
        },
        {
          "name": "El Tío",
          "lat": -31.38357,
          "lon": -62.82938
        },
        {
          "name": "Elena",
          "lat": -32.57205,
          "lon": -64.39481
        },
        {
          "name": "Embalse",
          "lat": -32.18,
          "lon": -64.41809
        },
        {
          "name": "Etruria",
          "lat": -32.94008,
          "lon": -63.2466
        },
        {
          "name": "General Baldissera",
          "lat": -33.12246,
          "lon": -62.3063
        },
        {
          "name": "General Cabrera",
          "lat": -32.81313,
          "lon": -63.87243
        },
        {
          "name": "General Levalle",
          "lat": -34.01472,
          "lon": -63.92413
        },
        {
          "name": "General Roca",
          "lat": -32.73196,
          "lon": -61.91599
        },
        {
          "name": "Guatimozín",
          "lat": -33.46149,
          "lon": -62.43844
        },
        {
          "name": "Hernando",
          "lat": -32.42657,
          "lon": -63.73333
        },
        {
          "name": "Huanchillas",
          "lat": -33.66653,
          "lon": -63.63701
        },
        {
          "name": "Huerta Grande",
          "lat": -31.07524,
          "lon": -64.49063
        },
        {
          "name": "Huinca Renancó",
          "lat": -34.84038,
          "lon": -64.3758
        },
        {
          "name": "Idiazábal",
          "lat": -32.81411,
          "lon": -63.03252
        },
        {
          "name": "Inriville",
          "lat": -32.94424,
          "lon": -62.23028
        },
        {
          "name": "Isla Verde",
          "lat": -33.24104,
          "lon": -62.40297
        },
        {
          "name": "Italó",
          "lat": -34.79237,
          "lon": -63.78199
        },
        {
          "name": "James Craik",
          "lat": -32.1612,
          "lon": -63.46688
        },
        {
          "name": "Jesús María",
          "lat": -30.98153,
          "lon": -64.09424
        },
        {
          "name": "Justiniano Posse",
          "lat": -32.88411,
          "lon": -62.67788
        },
        {
          "name": "La Calera",
          "lat": -31.34377,
          "lon": -64.33529
        },
        {
          "name": "La Carlota",
          "lat": -33.41993,
          "lon": -63.29769
        },
        {
          "name": "La Cesira",
          "lat": -33.95115,
          "lon": -62.97238
        },
        {
          "name": "La Cumbre",
          "lat": -30.98201,
          "lon": -64.49139
        },
        {
          "name": "La Falda",
          "lat": -31.08841,
          "lon": -64.48987
        },
        {
          "name": "La Francia",
          "lat": -31.40675,
          "lon": -62.63396
        },
        {
          "name": "La Granja",
          "lat": -31.00919,
          "lon": -64.26869
        },
        {
          "name": "La Para",
          "lat": -30.89416,
          "lon": -63.00107
        },
        {
          "name": "La Playosa",
          "lat": -32.10002,
          "lon": -63.03088
        },
        {
          "name": "Laborde",
          "lat": -33.15319,
          "lon": -62.85661
        },
        {
          "name": "Laboulaye",
          "lat": -34.12662,
          "lon": -63.39119
        },
        {
          "name": "Laguna Larga",
          "lat": -31.77652,
          "lon": -63.80104
        },
        {
          "name": "Las Acequias",
          "lat": -33.28155,
          "lon": -63.9761
        },
        {
          "name": "Las Higueras",
          "lat": -33.09231,
          "lon": -64.28899
        },
        {
          "name": "Las Junturas",
          "lat": -31.83125,
          "lon": -63.45016
        },
        {
          "name": "Las Perdices",
          "lat": -32.69794,
          "lon": -63.70634
        },
        {
          "name": "Las Varas",
          "lat": -31.8026,
          "lon": -62.61655
        },
        {
          "name": "Las Varillas",
          "lat": -31.87208,
          "lon": -62.71946
        },
        {
          "name": "Leones",
          "lat": -32.66174,
          "lon": -62.29678
        },
        {
          "name": "Los Cocos",
          "lat": -30.92497,
          "lon": -64.50207
        },
        {
          "name": "Los Cóndores",
          "lat": -32.31983,
          "lon": -64.27751
        },
        {
          "name": "Los Surgentes",
          "lat": -32.98454,
          "lon": -62.02191
        },
        {
          "name": "Malagueño",
          "lat": -31.46467,
          "lon": -64.3584
        },
        {
          "name": "Malvinas Argentinas",
          "lat": -31.38194,
          "lon": -64.05545
        },
        {
          "name": "Marcos Juárez",
          "lat": -32.6978,
          "lon": -62.10672
        },
        {
          "name": "Marull",
          "lat": -30.99471,
          "lon": -62.82576
        },
        {
          "name": "Mattaldi",
          "lat": -34.48194,
          "lon": -64.17255
        },
        {
          "name": "Mendiolaza",
          "lat": -31.26738,
          "lon": -64.30087
        },
        {
          "name": "Mina Clavero",
          "lat": -31.72101,
          "lon": -65.00619
        },
        {
          "name": "Miramar",
          "lat": -30.91859,
          "lon": -62.67814
        },
        {
          "name": "Monte Buey",
          "lat": -32.91642,
          "lon": -62.45669
        },
        {
          "name": "Monte Cristo",
          "lat": -31.34312,
          "lon": -63.94437
        },
        {
          "name": "Monte Maíz",
          "lat": -33.20462,
          "lon": -62.60085
        },
        {
          "name": "Morrison",
          "lat": -32.5948,
          "lon": -62.83455
        },
        {
          "name": "Morteros",
          "lat": -30.71164,
          "lon": -61.99862
        },
        {
          "name": "Noetinger",
          "lat": -32.36597,
          "lon": -62.31126
        },
        {
          "name": "Obispo Trejo",
          "lat": -30.78128,
          "lon": -63.41349
        },
        {
          "name": "Oliva",
          "lat": -32.04158,
          "lon": -63.56978
        },
        {
          "name": "Oncativo",
          "lat": -31.91353,
          "lon": -63.68201
        },
        {
          "name": "Ordóñez",
          "lat": -32.84057,
          "lon": -62.86552
        },
        {
          "name": "Pascanas",
          "lat": -33.1255,
          "lon": -63.04084
        },
        {
          "name": "Pasco",
          "lat": -32.74733,
          "lon": -63.34232
        },
        {
          "name": "Pilar",
          "lat": -31.6789,
          "lon": -63.87964
        },
        {
          "name": "Piquillín",
          "lat": -31.30158,
          "lon": -63.75788
        },
        {
          "name": "Porteña",
          "lat": -31.01391,
          "lon": -62.0665
        },
        {
          "name": "Pozo del Molle",
          "lat": -32.0186,
          "lon": -62.91984
        },
        {
          "name": "Quilino",
          "lat": -30.21397,
          "lon": -64.50063
        },
        {
          "name": "Río Ceballos",
          "lat": -31.16486,
          "lon": -64.32241
        },
        {
          "name": "Río Cuarto",
          "lat": -33.13067,
          "lon": -64.34992
        },
        {
          "name": "Río Segundo",
          "lat": -31.6526,
          "lon": -63.9099
        },
        {
          "name": "Río Tercero",
          "lat": -32.17301,
          "lon": -64.11405
        },
        {
          "name": "Sacanta",
          "lat": -31.663,
          "lon": -63.04505
        },
        {
          "name": "Saldán",
          "lat": -31.30262,
          "lon": -64.307
        },
        {
          "name": "Salsacate",
          "lat": -31.31842,
          "lon": -65.09003
        },
        {
          "name": "Salsipuedes",
          "lat": -31.13725,
          "lon": -64.29589
        },
        {
          "name": "Sampacho",
          "lat": -33.3839,
          "lon": -64.72211
        },
        {
          "name": "San Agustín",
          "lat": -31.97681,
          "lon": -64.374
        },
        {
          "name": "San Antonio de Litín",
          "lat": -32.21377,
          "lon": -62.63237
        },
        {
          "name": "San Basilio",
          "lat": -33.49763,
          "lon": -64.31495
        },
        {
          "name": "San Carlos",
          "lat": -31.17761,
          "lon": -65.10245
        },
        {
          "name": "San Francisco",
          "lat": -31.42797,
          "lon": -62.08266
        },
        {
          "name": "San Francisco del Chañar",
          "lat": -29.7883,
          "lon": -63.94411
        },
        {
          "name": "San José de la Dormida",
          "lat": -30.3544,
          "lon": -63.94871
        },
        {
          "name": "Santa Eufemia",
          "lat": -33.17659,
          "lon": -63.28281
        },
        {
          "name": "Santa Magdalena",
          "lat": -34.51776,
          "lon": -63.94409
        },
        {
          "name": "Santa Rosa de Calamuchita",
          "lat": -32.06905,
          "lon": -64.53631
        },
        {
          "name": "Santa Rosa de Río Primero",
          "lat": -31.15231,
          "lon": -63.40191
        },
        {
          "name": "Santiago Temple",
          "lat": -31.38731,
          "lon": -63.41821
        },
        {
          "name": "Saturnino M. Laspiur",
          "lat": -31.70287,
          "lon": -62.48202
        },
        {
          "name": "Sebastián Elcano",
          "lat": -30.16105,
          "lon": -63.5936
        },
        {
          "name": "Serrano",
          "lat": -34.46971,
          "lon": -63.53842
        },
        {
          "name": "Serrezuela",
          "lat": -30.63761,
          "lon": -65.38692
        },
        {
          "name": "Tancacha",
          "lat": -32.24309,
          "lon": -63.9807
        },
        {
          "name": "Ticino",
          "lat": -32.6935,
          "lon": -63.43606
        },
        {
          "name": "Tío Pujio",
          "lat": -32.2879,
          "lon": -63.35598
        },
        {
          "name": "Toledo",
          "lat": -31.55574,
          "lon": -64.00947
        },
        {
          "name": "Ucacha",
          "lat": -33.03203,
          "lon": -63.50666
        },
        {
          "name": "Unquillo",
          "lat": -31.23073,
          "lon": -64.31615
        },
        {
          "name": "Valle Hermoso",
          "lat": -31.11732,
          "lon": -64.48084
        },
        {
          "name": "Viamonte",
          "lat": -33.74647,
          "lon": -63.09764
        },
        {
          "name": "Vicuña Mackenna",
          "lat": -33.91965,
          "lon": -64.39215
        },
        {
          "name": "Villa Allende",
          "lat": -31.29458,
          "lon": -64.29538
        },
        {
          "name": "Villa Ascasubi",
          "lat": -32.16351,
          "lon": -63.89157
        },
        {
          "name": "Villa Berna",
          "lat": -31.91419,
          "lon": -64.73249
        },
        {
          "name": "Villa Carlos Paz",
          "lat": -31.42414,
          "lon": -64.49778
        },
        {
          "name": "Villa Concepción del Tío",
          "lat": -31.32259,
          "lon": -62.81354
        },
        {
          "name": "Villa Cura Brochero",
          "lat": -31.70578,
          "lon": -65.01796
        },
        {
          "name": "Villa de Soto",
          "lat": -30.85523,
          "lon": -64.99947
        },
        {
          "name": "Villa del Dique",
          "lat": -32.17667,
          "lon": -64.45543
        },
        {
          "name": "Villa del Rosario",
          "lat": -31.5566,
          "lon": -63.53452
        },
        {
          "name": "Villa del Totoral",
          "lat": -30.81667,
          "lon": -63.71667
        },
        {
          "name": "Villa Dolores",
          "lat": -31.94585,
          "lon": -65.18958
        },
        {
          "name": "Villa General Belgrano",
          "lat": -31.97828,
          "lon": -64.55627
        },
        {
          "name": "Villa Giardino",
          "lat": -31.03333,
          "lon": -64.48333
        },
        {
          "name": "Villa Huidobro",
          "lat": -34.83826,
          "lon": -64.58686
        },
        {
          "name": "Villa Las Rosas",
          "lat": -31.95021,
          "lon": -65.05354
        },
        {
          "name": "Villa María",
          "lat": -32.40751,
          "lon": -63.24016
        },
        {
          "name": "Villa Nueva",
          "lat": -32.43293,
          "lon": -63.24763
        },
        {
          "name": "Villa Reducción",
          "lat": -33.20105,
          "lon": -63.86234
        },
        {
          "name": "Villa Rumipal",
          "lat": -32.1879,
          "lon": -64.48027
        },
        {
          "name": "Villa Tulumba",
          "lat": -30.39552,
          "lon": -64.12241
        },
        {
          "name": "Villa Valeria",
          "lat": -34.34093,
          "lon": -64.9203
        },
        {
          "name": "Wenceslao Escalante",
          "lat": -33.17303,
          "lon": -62.77078
        }
      ]
    },
    {
      "name": "Corrientes",
      "stateCode": "W",
      "lat": -27.4692131,
      "lon": -58.8306349,
      "cities": [
        {
          "name": "Alvear",
          "lat": -29.09683,
          "lon": -56.55043
        },
        {
          "name": "Berón de Astrada",
          "lat": -27.55067,
          "lon": -57.5346
        },
        {
          "name": "Bonpland",
          "lat": -29.81708,
          "lon": -57.42974
        },
        {
          "name": "Chavarría",
          "lat": -28.95489,
          "lon": -58.57277
        },
        {
          "name": "Concepción",
          "lat": -28.39175,
          "lon": -57.88777
        },
        {
          "name": "Corrientes",
          "lat": -27.46784,
          "lon": -58.8344
        },
        {
          "name": "Cruz de los Milagros",
          "lat": -28.83646,
          "lon": -59.00476
        },
        {
          "name": "Curuzú Cuatiá",
          "lat": -29.79171,
          "lon": -58.0546
        },
        {
          "name": "Departamento de Bella Vista",
          "lat": -28.5,
          "lon": -58.83333
        },
        {
          "name": "Departamento de Berón de Astrada",
          "lat": -27.5,
          "lon": -57.66667
        },
        {
          "name": "Departamento de Capital",
          "lat": -27.5,
          "lon": -58.75
        },
        {
          "name": "Departamento de Concepción",
          "lat": -28.33333,
          "lon": -58
        },
        {
          "name": "Departamento de Curuzú Cuatiá",
          "lat": -29.5,
          "lon": -58.5
        },
        {
          "name": "Departamento de Empedrado",
          "lat": -27.83333,
          "lon": -58.66667
        },
        {
          "name": "Departamento de Esquina",
          "lat": -30,
          "lon": -59.33333
        },
        {
          "name": "Departamento de General Alvear",
          "lat": -28.83333,
          "lon": -56.5
        },
        {
          "name": "Departamento de General Paz",
          "lat": -27.75,
          "lon": -57.83333
        },
        {
          "name": "Departamento de Goya",
          "lat": -29.5,
          "lon": -59.5
        },
        {
          "name": "Departamento de Itatí",
          "lat": -27.33333,
          "lon": -58
        },
        {
          "name": "Departamento de Ituzaingó",
          "lat": -27.90085,
          "lon": -56.86604
        },
        {
          "name": "Departamento de Lavalle",
          "lat": -29,
          "lon": -58.91667
        },
        {
          "name": "Departamento de Mburucuyá",
          "lat": -28,
          "lon": -58.25
        },
        {
          "name": "Departamento de Mercedes",
          "lat": -29,
          "lon": -57.83333
        },
        {
          "name": "Departamento de Monte Caseros",
          "lat": -30.25,
          "lon": -57.83333
        },
        {
          "name": "Departamento de Paso de los Libres",
          "lat": -29.66667,
          "lon": -57.25
        },
        {
          "name": "Departamento de Saladas",
          "lat": -28.25,
          "lon": -58.75
        },
        {
          "name": "Departamento de San Cosme",
          "lat": -27.33333,
          "lon": -58.5
        },
        {
          "name": "Departamento de San Luis del Palmar",
          "lat": -27.5,
          "lon": -58.25
        },
        {
          "name": "Departamento de San Martín",
          "lat": -28.83333,
          "lon": -56.91667
        },
        {
          "name": "Departamento de San Miguel",
          "lat": -27.91667,
          "lon": -57.5
        },
        {
          "name": "Departamento de San Roque",
          "lat": -28.66667,
          "lon": -58.75
        },
        {
          "name": "Departamento de Santo Tomé",
          "lat": -28.25,
          "lon": -56.25
        },
        {
          "name": "Departamento de Sauce",
          "lat": -30,
          "lon": -58.66667
        },
        {
          "name": "Empedrado",
          "lat": -27.95178,
          "lon": -58.80584
        },
        {
          "name": "Esquina",
          "lat": -30.01476,
          "lon": -59.5289
        },
        {
          "name": "Felipe Yofré",
          "lat": -29.10226,
          "lon": -58.33772
        },
        {
          "name": "Garruchos",
          "lat": -28.17208,
          "lon": -55.65406
        },
        {
          "name": "Gobernador Juan E. Martínez",
          "lat": -28.91161,
          "lon": -58.93594
        },
        {
          "name": "Gobernador Virasora",
          "lat": -28.05,
          "lon": -56.03333
        },
        {
          "name": "Goya",
          "lat": -29.13995,
          "lon": -59.26343
        },
        {
          "name": "Herlitzka",
          "lat": -27.56516,
          "lon": -58.25557
        },
        {
          "name": "Itá Ibaté",
          "lat": -27.42573,
          "lon": -57.33758
        },
        {
          "name": "Itatí",
          "lat": -27.27043,
          "lon": -58.24458
        },
        {
          "name": "Ituzaingó",
          "lat": -27.58162,
          "lon": -56.68231
        },
        {
          "name": "Juan Pujol",
          "lat": -30.41873,
          "lon": -57.85612
        },
        {
          "name": "La Cruz",
          "lat": -29.17443,
          "lon": -56.64326
        },
        {
          "name": "Libertad",
          "lat": -30.043,
          "lon": -57.8202
        },
        {
          "name": "Lomas de Vallejos",
          "lat": -27.73501,
          "lon": -57.9185
        },
        {
          "name": "Loreto",
          "lat": -27.76834,
          "lon": -57.27531
        },
        {
          "name": "Mariano I. Loza",
          "lat": -29.37667,
          "lon": -58.19436
        },
        {
          "name": "Mburucuyá",
          "lat": -28.04532,
          "lon": -58.22835
        },
        {
          "name": "Mercedes",
          "lat": -29.18416,
          "lon": -58.07519
        },
        {
          "name": "Mocoretá",
          "lat": -30.61891,
          "lon": -57.96344
        },
        {
          "name": "Monte Caseros",
          "lat": -30.25359,
          "lon": -57.63626
        },
        {
          "name": "Nuestra Señora del Rosario de Caa Catí",
          "lat": -27.75072,
          "lon": -57.62073
        },
        {
          "name": "Nueve de Julio",
          "lat": -28.84051,
          "lon": -58.8265
        },
        {
          "name": "Palmar Grande",
          "lat": -27.94195,
          "lon": -57.90057
        },
        {
          "name": "Paso de la Patria",
          "lat": -27.31676,
          "lon": -58.57197
        },
        {
          "name": "Paso de los Libres",
          "lat": -29.71251,
          "lon": -57.08771
        },
        {
          "name": "Pedro R. Fernández",
          "lat": -28.75097,
          "lon": -58.65583
        },
        {
          "name": "Perugorría",
          "lat": -29.34132,
          "lon": -58.61059
        },
        {
          "name": "Pueblo Libertador",
          "lat": -30.22087,
          "lon": -59.38981
        },
        {
          "name": "Riachuelo",
          "lat": -27.58191,
          "lon": -58.74497
        },
        {
          "name": "Saladas",
          "lat": -28.25384,
          "lon": -58.62591
        },
        {
          "name": "San Carlos",
          "lat": -27.74586,
          "lon": -55.89731
        },
        {
          "name": "San Cosme",
          "lat": -27.37123,
          "lon": -58.51214
        },
        {
          "name": "San Lorenzo",
          "lat": -28.13306,
          "lon": -58.76733
        },
        {
          "name": "San Luis del Palmar",
          "lat": -27.5079,
          "lon": -58.55454
        },
        {
          "name": "San Miguel",
          "lat": -27.99585,
          "lon": -57.58964
        },
        {
          "name": "Santa Lucía",
          "lat": -28.98746,
          "lon": -59.10287
        },
        {
          "name": "Santa Rosa",
          "lat": -28.26318,
          "lon": -58.11891
        },
        {
          "name": "Santo Tomé",
          "lat": -28.54939,
          "lon": -56.04077
        },
        {
          "name": "Yapeyú",
          "lat": -29.46914,
          "lon": -56.81841
        },
        {
          "name": "Yataity Calle",
          "lat": -29.01913,
          "lon": -58.90846
        }
      ]
    },
    {
      "name": "Entre Ríos",
      "stateCode": "E",
      "lat": -31.7746654,
      "lon": -60.4956461,
      "cities": [
        {
          "name": "Aldea San Antonio",
          "lat": -32.62317,
          "lon": -58.70512
        },
        {
          "name": "Aranguren",
          "lat": -32.24252,
          "lon": -60.16107
        },
        {
          "name": "Bovril",
          "lat": -31.34311,
          "lon": -59.44512
        },
        {
          "name": "Caseros",
          "lat": -32.46325,
          "lon": -58.47872
        },
        {
          "name": "Ceibas",
          "lat": -33.43333,
          "lon": -58.75
        },
        {
          "name": "Chajarí",
          "lat": -30.75048,
          "lon": -57.97962
        },
        {
          "name": "Colón",
          "lat": -32.22312,
          "lon": -58.14426
        },
        {
          "name": "Colonia Elía",
          "lat": -32.67144,
          "lon": -58.32538
        },
        {
          "name": "Concepción del Uruguay",
          "lat": -32.48463,
          "lon": -58.23217
        },
        {
          "name": "Concordia",
          "lat": -31.39296,
          "lon": -58.02089
        },
        {
          "name": "Conscripto Bernardi",
          "lat": -31.04837,
          "lon": -59.08435
        },
        {
          "name": "Crespo",
          "lat": -32.02873,
          "lon": -60.30658
        },
        {
          "name": "Departamento de Gualeguaychú",
          "lat": -33.25,
          "lon": -59
        },
        {
          "name": "Departamento de Paraná",
          "lat": -31.66667,
          "lon": -60
        },
        {
          "name": "Diamante",
          "lat": -32.06641,
          "lon": -60.63837
        },
        {
          "name": "Domínguez",
          "lat": -31.9871,
          "lon": -58.96197
        },
        {
          "name": "Federación",
          "lat": -31.00621,
          "lon": -57.89962
        },
        {
          "name": "Federal",
          "lat": -30.95465,
          "lon": -58.78326
        },
        {
          "name": "General Campos",
          "lat": -31.52311,
          "lon": -58.4049
        },
        {
          "name": "General Galarza",
          "lat": -32.72034,
          "lon": -59.39615
        },
        {
          "name": "General Ramírez",
          "lat": -32.17601,
          "lon": -60.20079
        },
        {
          "name": "Gobernador Mansilla",
          "lat": -32.54453,
          "lon": -59.3548
        },
        {
          "name": "Gualeguay",
          "lat": -33.14156,
          "lon": -59.30966
        },
        {
          "name": "Gualeguaychú",
          "lat": -33.00937,
          "lon": -58.51722
        },
        {
          "name": "Hasenkamp",
          "lat": -31.51226,
          "lon": -59.83545
        },
        {
          "name": "Hernández",
          "lat": -32.3373,
          "lon": -60.0216
        },
        {
          "name": "Herrera",
          "lat": -32.43401,
          "lon": -58.63177
        },
        {
          "name": "La Criolla",
          "lat": -31.26904,
          "lon": -58.10558
        },
        {
          "name": "La Paz",
          "lat": -30.74179,
          "lon": -59.64517
        },
        {
          "name": "Larroque",
          "lat": -33.03595,
          "lon": -59.00125
        },
        {
          "name": "Los Charrúas",
          "lat": -31.17548,
          "lon": -58.18774
        },
        {
          "name": "Los Conquistadores",
          "lat": -30.5908,
          "lon": -58.46773
        },
        {
          "name": "Lucas González",
          "lat": -32.3843,
          "lon": -59.53013
        },
        {
          "name": "Maciá",
          "lat": -32.1722,
          "lon": -59.39947
        },
        {
          "name": "Nogoyá",
          "lat": -32.39387,
          "lon": -59.78953
        },
        {
          "name": "Oro Verde",
          "lat": -31.82508,
          "lon": -60.51749
        },
        {
          "name": "Paraná",
          "lat": -31.73271,
          "lon": -60.52897
        },
        {
          "name": "Piedras Blancas",
          "lat": -31.18592,
          "lon": -59.95181
        },
        {
          "name": "Pronunciamiento",
          "lat": -32.3448,
          "lon": -58.44268
        },
        {
          "name": "Puerto Ibicuy",
          "lat": -33.75305,
          "lon": -59.17762
        },
        {
          "name": "Puerto Yeruá",
          "lat": -31.53713,
          "lon": -58.01527
        },
        {
          "name": "Rosario del Tala",
          "lat": -32.30286,
          "lon": -59.14545
        },
        {
          "name": "San Benito",
          "lat": -31.78371,
          "lon": -60.44156
        },
        {
          "name": "San Gustavo",
          "lat": -30.68961,
          "lon": -59.3984
        },
        {
          "name": "San José de Feliciano",
          "lat": -30.38452,
          "lon": -58.75167
        },
        {
          "name": "San Justo",
          "lat": -32.44654,
          "lon": -58.43569
        },
        {
          "name": "San Salvador",
          "lat": -31.62487,
          "lon": -58.50524
        },
        {
          "name": "Santa Ana",
          "lat": -30.90004,
          "lon": -57.93162
        },
        {
          "name": "Santa Anita",
          "lat": -32.17476,
          "lon": -58.78622
        },
        {
          "name": "Santa Elena",
          "lat": -30.94432,
          "lon": -59.78832
        },
        {
          "name": "Sauce de Luna",
          "lat": -31.23794,
          "lon": -59.21872
        },
        {
          "name": "Seguí",
          "lat": -31.95642,
          "lon": -60.12488
        },
        {
          "name": "Tabossi",
          "lat": -31.80135,
          "lon": -59.93477
        },
        {
          "name": "Ubajay",
          "lat": -31.79358,
          "lon": -58.3135
        },
        {
          "name": "Urdinarrain",
          "lat": -32.68573,
          "lon": -58.89323
        },
        {
          "name": "Viale",
          "lat": -31.86782,
          "lon": -60.00722
        },
        {
          "name": "Victoria",
          "lat": -32.61841,
          "lon": -60.15478
        },
        {
          "name": "Villa del Rosario",
          "lat": -30.79567,
          "lon": -57.91257
        },
        {
          "name": "Villa Elisa",
          "lat": -32.1632,
          "lon": -58.40082
        },
        {
          "name": "Villa Hernandarias",
          "lat": -31.23097,
          "lon": -59.98464
        },
        {
          "name": "Villa Mantero",
          "lat": -32.39727,
          "lon": -58.74596
        },
        {
          "name": "Villa María Grande",
          "lat": -31.66565,
          "lon": -59.90182
        },
        {
          "name": "Villa Paranacito",
          "lat": -33.71381,
          "lon": -58.65844
        },
        {
          "name": "Villa Urquiza",
          "lat": -31.64757,
          "lon": -60.37516
        },
        {
          "name": "Villaguay",
          "lat": -31.8653,
          "lon": -59.02689
        }
      ]
    },
    {
      "name": "Formosa",
      "stateCode": "P",
      "lat": -26.1894804,
      "lon": -58.2242806,
      "cities": [
        {
          "name": "Clorinda",
          "lat": -25.28481,
          "lon": -57.71851
        },
        {
          "name": "Comandante Fontana",
          "lat": -25.33453,
          "lon": -59.68212
        },
        {
          "name": "Departamento de Pilcomayo",
          "lat": -25.5,
          "lon": -58.08333
        },
        {
          "name": "El Colorado",
          "lat": -26.30808,
          "lon": -59.37291
        },
        {
          "name": "Estanislao del Campo",
          "lat": -25.05504,
          "lon": -60.09218
        },
        {
          "name": "Formosa",
          "lat": -26.18489,
          "lon": -58.17313
        },
        {
          "name": "General Enrique Mosconi",
          "lat": -23.21667,
          "lon": -62.3
        },
        {
          "name": "Herradura",
          "lat": -26.48705,
          "lon": -58.31198
        },
        {
          "name": "Ibarreta",
          "lat": -25.21438,
          "lon": -59.85851
        },
        {
          "name": "Ingeniero Guillermo N. Juárez",
          "lat": -23.9,
          "lon": -61.85
        },
        {
          "name": "Laguna Naick-Neck",
          "lat": -25.24769,
          "lon": -58.09383
        },
        {
          "name": "Laguna Yema",
          "lat": -24.25391,
          "lon": -61.24466
        },
        {
          "name": "Las Lomitas",
          "lat": -24.70955,
          "lon": -60.59303
        },
        {
          "name": "Palo Santo",
          "lat": -25.56332,
          "lon": -59.33781
        },
        {
          "name": "Pirané",
          "lat": -25.73239,
          "lon": -59.10879
        },
        {
          "name": "Pozo del Tigre",
          "lat": -24.89682,
          "lon": -60.32359
        },
        {
          "name": "Riacho Eh-Eh",
          "lat": -25.36209,
          "lon": -58.2775
        },
        {
          "name": "San Francisco de Laishí",
          "lat": -26.24262,
          "lon": -58.63039
        },
        {
          "name": "Villa Escolar",
          "lat": -26.62209,
          "lon": -58.67134
        },
        {
          "name": "Villa General Guemes",
          "lat": -24.7553,
          "lon": -59.4894
        }
      ]
    },
    {
      "name": "Jujuy",
      "stateCode": "Y",
      "lat": -24.1843397,
      "lon": -65.302177,
      "cities": [
        {
          "name": "Abra Pampa",
          "lat": -22.72049,
          "lon": -65.69697
        },
        {
          "name": "Caimancito",
          "lat": -23.74069,
          "lon": -64.5937
        },
        {
          "name": "Calilegua",
          "lat": -23.77368,
          "lon": -64.77002
        },
        {
          "name": "Departamento de Cochinoca",
          "lat": -23,
          "lon": -65.83333
        },
        {
          "name": "Departamento de Rinconada",
          "lat": -22.5,
          "lon": -66.5
        },
        {
          "name": "Departamento de Tumbaya",
          "lat": -23.71667,
          "lon": -65.66667
        },
        {
          "name": "El Aguilar",
          "lat": -23.21572,
          "lon": -65.68005
        },
        {
          "name": "Fraile Pintado",
          "lat": -23.94079,
          "lon": -64.79943
        },
        {
          "name": "Humahuaca",
          "lat": -23.20544,
          "lon": -65.35048
        },
        {
          "name": "Ingenio La Esperanza",
          "lat": -24.22554,
          "lon": -64.83896
        },
        {
          "name": "La Mendieta",
          "lat": -24.31187,
          "lon": -64.96377
        },
        {
          "name": "La Quiaca",
          "lat": -22.10236,
          "lon": -65.59299
        },
        {
          "name": "Libertador General San Martín",
          "lat": -23.80644,
          "lon": -64.78757
        },
        {
          "name": "Maimará",
          "lat": -23.62392,
          "lon": -65.40797
        },
        {
          "name": "Palma Sola",
          "lat": -23.97771,
          "lon": -64.30311
        },
        {
          "name": "Palpalá",
          "lat": -24.25647,
          "lon": -65.21163
        },
        {
          "name": "San Pedro de Jujuy",
          "lat": -24.23127,
          "lon": -64.86614
        },
        {
          "name": "San Salvador de Jujuy",
          "lat": -24.19457,
          "lon": -65.29712
        },
        {
          "name": "Santa Clara",
          "lat": -24.30921,
          "lon": -64.66253
        },
        {
          "name": "Tilcara",
          "lat": -23.57817,
          "lon": -65.39516
        },
        {
          "name": "Yuto",
          "lat": -23.64342,
          "lon": -64.47194
        }
      ]
    },
    {
      "name": "La Pampa",
      "stateCode": "L",
      "lat": -36.6147573,
      "lon": -64.2839209,
      "cities": [
        {
          "name": "Alpachiri",
          "lat": -37.37704,
          "lon": -63.77445
        },
        {
          "name": "Alta Italia",
          "lat": -35.3335,
          "lon": -64.11496
        },
        {
          "name": "Anguil",
          "lat": -36.52567,
          "lon": -64.01025
        },
        {
          "name": "Arata",
          "lat": -35.63895,
          "lon": -64.35621
        },
        {
          "name": "Bernardo Larroudé",
          "lat": -35.02449,
          "lon": -63.58253
        },
        {
          "name": "Bernasconi",
          "lat": -37.90459,
          "lon": -63.7424
        },
        {
          "name": "Caleufú",
          "lat": -35.59559,
          "lon": -64.55778
        },
        {
          "name": "Catriló",
          "lat": -36.40597,
          "lon": -63.42168
        },
        {
          "name": "Colonia Barón",
          "lat": -36.15152,
          "lon": -63.85404
        },
        {
          "name": "Departamento de Caleu-Caleu",
          "lat": -38.58333,
          "lon": -64
        },
        {
          "name": "Departamento de Toay",
          "lat": -36.58333,
          "lon": -64.8
        },
        {
          "name": "Doblas",
          "lat": -37.14967,
          "lon": -64.01183
        },
        {
          "name": "Eduardo Castex",
          "lat": -35.91501,
          "lon": -64.29448
        },
        {
          "name": "Embajador Martini",
          "lat": -35.38633,
          "lon": -64.28092
        },
        {
          "name": "General Acha",
          "lat": -37.37698,
          "lon": -64.60431
        },
        {
          "name": "General Manuel J. Campos",
          "lat": -37.46025,
          "lon": -63.58537
        },
        {
          "name": "General Pico",
          "lat": -35.65662,
          "lon": -63.75682
        },
        {
          "name": "General San Martín",
          "lat": -37.97904,
          "lon": -63.60449
        },
        {
          "name": "Guatraché",
          "lat": -37.66776,
          "lon": -63.53021
        },
        {
          "name": "Ingeniero Luiggi",
          "lat": -35.38585,
          "lon": -64.46519
        },
        {
          "name": "Intendente Alvear",
          "lat": -35.23383,
          "lon": -63.59205
        },
        {
          "name": "Jacinto Arauz",
          "lat": -38.08606,
          "lon": -63.43169
        },
        {
          "name": "La Adela",
          "lat": -38.98333,
          "lon": -64.08333
        },
        {
          "name": "La Maruja",
          "lat": -35.6736,
          "lon": -64.93997
        },
        {
          "name": "Lonquimay",
          "lat": -36.46546,
          "lon": -63.62429
        },
        {
          "name": "Macachín",
          "lat": -37.13598,
          "lon": -63.6665
        },
        {
          "name": "Miguel Riglos",
          "lat": -36.85398,
          "lon": -63.68842
        },
        {
          "name": "Parera",
          "lat": -35.146,
          "lon": -64.50089
        },
        {
          "name": "Quemú Quemú",
          "lat": -36.05463,
          "lon": -63.56428
        },
        {
          "name": "Rancul",
          "lat": -35.06862,
          "lon": -64.68107
        },
        {
          "name": "Realicó",
          "lat": -35.03658,
          "lon": -64.2447
        },
        {
          "name": "Santa Isabel",
          "lat": -36.22724,
          "lon": -66.9424
        },
        {
          "name": "Santa Rosa",
          "lat": -36.61667,
          "lon": -64.28333
        },
        {
          "name": "Telén",
          "lat": -36.26429,
          "lon": -65.51018
        },
        {
          "name": "Trenel",
          "lat": -35.69837,
          "lon": -64.13218
        },
        {
          "name": "Uriburu",
          "lat": -36.50682,
          "lon": -63.86225
        },
        {
          "name": "Veinticinco de Mayo",
          "lat": -37.7741,
          "lon": -67.71638
        },
        {
          "name": "Victorica",
          "lat": -36.21505,
          "lon": -65.43586
        },
        {
          "name": "Winifreda",
          "lat": -36.22643,
          "lon": -64.23388
        }
      ]
    },
    {
      "name": "La Rioja",
      "stateCode": "F",
      "lat": -29.4193793,
      "lon": -66.8559932,
      "cities": [
        {
          "name": "Arauco",
          "lat": -28.58071,
          "lon": -66.7925
        },
        {
          "name": "Castro Barros",
          "lat": -30.57952,
          "lon": -65.72696
        },
        {
          "name": "Chamical",
          "lat": -30.36002,
          "lon": -66.31399
        },
        {
          "name": "Chilecito",
          "lat": -29.16195,
          "lon": -67.4974
        },
        {
          "name": "Departamento de Arauco",
          "lat": -28.5,
          "lon": -66.83333
        },
        {
          "name": "Departamento de General Lamadrid",
          "lat": -28.83333,
          "lon": -68.66667
        },
        {
          "name": "Departamento de Independencia",
          "lat": -30.16667,
          "lon": -67.41667
        },
        {
          "name": "La Rioja",
          "lat": -29.41105,
          "lon": -66.85067
        },
        {
          "name": "Villa Bustos",
          "lat": -29.28636,
          "lon": -67.02067
        },
        {
          "name": "Vinchina",
          "lat": -28.75964,
          "lon": -68.20692
        }
      ]
    },
    {
      "name": "Mendoza",
      "stateCode": "M",
      "lat": -32.8894587,
      "lon": -68.8458386,
      "cities": [
        {
          "name": "Departamento de Capital",
          "lat": -32.88469,
          "lon": -68.85826
        },
        {
          "name": "Departamento de General Alvear",
          "lat": -35.16667,
          "lon": -67.33333
        },
        {
          "name": "Departamento de Godoy Cruz",
          "lat": -32.93333,
          "lon": -68.86667
        },
        {
          "name": "Departamento de Guaymallén",
          "lat": -32.88333,
          "lon": -68.7
        },
        {
          "name": "Departamento de La Paz",
          "lat": -33.66667,
          "lon": -67.25
        },
        {
          "name": "Departamento de Las Heras",
          "lat": -32.5,
          "lon": -69.5
        },
        {
          "name": "Departamento de Lavalle",
          "lat": -32.5,
          "lon": -68
        },
        {
          "name": "Departamento de Luján",
          "lat": -33,
          "lon": -69.33333
        },
        {
          "name": "Departamento de Maipú",
          "lat": -33,
          "lon": -68.58333
        },
        {
          "name": "Departamento de Malargüe",
          "lat": -36.25,
          "lon": -69.25
        },
        {
          "name": "Departamento de Rivadavia",
          "lat": -33.18,
          "lon": -68.466
        },
        {
          "name": "Departamento de San Carlos",
          "lat": -34,
          "lon": -69
        },
        {
          "name": "Departamento de San Martín",
          "lat": -32.8373,
          "lon": -68.24922
        },
        {
          "name": "Departamento de San Rafael",
          "lat": -35,
          "lon": -68.83333
        },
        {
          "name": "Departamento de Santa Rosa",
          "lat": -33.5,
          "lon": -68
        },
        {
          "name": "Departamento de Tunuyán",
          "lat": -33.66667,
          "lon": -69.5
        },
        {
          "name": "Departamento de Tupungato",
          "lat": -33.25,
          "lon": -69.25
        },
        {
          "name": "Godoy Cruz",
          "lat": -32.92863,
          "lon": -68.8351
        },
        {
          "name": "Las Heras",
          "lat": -32.85273,
          "lon": -68.82837
        },
        {
          "name": "Mendoza",
          "lat": -32.89084,
          "lon": -68.82717
        },
        {
          "name": "San Martín",
          "lat": -33.08103,
          "lon": -68.46814
        },
        {
          "name": "San Rafael",
          "lat": -34.61772,
          "lon": -68.33007
        }
      ]
    },
    {
      "name": "Misiones",
      "stateCode": "N",
      "lat": -27.4269255,
      "lon": -55.9467076,
      "cities": [
        {
          "name": "Alba Posse",
          "lat": -27.56978,
          "lon": -54.68262
        },
        {
          "name": "Almafuerte",
          "lat": -27.50825,
          "lon": -55.40258
        },
        {
          "name": "Aristóbulo del Valle",
          "lat": -27.09625,
          "lon": -54.89626
        },
        {
          "name": "Arroyo del Medio",
          "lat": -27.69748,
          "lon": -55.40376
        },
        {
          "name": "Azara",
          "lat": -28.0616,
          "lon": -55.67797
        },
        {
          "name": "Bernardo de Irigoyen",
          "lat": -26.2552,
          "lon": -53.64581
        },
        {
          "name": "Bonpland",
          "lat": -27.48218,
          "lon": -55.47756
        },
        {
          "name": "Campo Grande",
          "lat": -27.2077,
          "lon": -54.97977
        },
        {
          "name": "Campo Ramón",
          "lat": -27.4549,
          "lon": -55.02122
        },
        {
          "name": "Campo Viera",
          "lat": -27.33271,
          "lon": -55.05651
        },
        {
          "name": "Candelaria",
          "lat": -27.4595,
          "lon": -55.74536
        },
        {
          "name": "Capioví",
          "lat": -26.92998,
          "lon": -55.06084
        },
        {
          "name": "Caraguatay",
          "lat": -26.60587,
          "lon": -54.78093
        },
        {
          "name": "Cerro Azul",
          "lat": -27.6331,
          "lon": -55.4962
        },
        {
          "name": "Cerro Corá",
          "lat": -27.5131,
          "lon": -55.60896
        },
        {
          "name": "Colonia Aurora",
          "lat": -27.47428,
          "lon": -54.52498
        },
        {
          "name": "Concepción de la Sierra",
          "lat": -27.98311,
          "lon": -55.52031
        },
        {
          "name": "Departamento de Apóstoles",
          "lat": -27.91667,
          "lon": -55.75
        },
        {
          "name": "Departamento de Cainguás",
          "lat": -27.16667,
          "lon": -54.83333
        },
        {
          "name": "Departamento de Candelaria",
          "lat": -27.5,
          "lon": -55.5
        },
        {
          "name": "Departamento de Capital",
          "lat": -27.5,
          "lon": -55.83333
        },
        {
          "name": "Departamento de Concepción de la Sierra",
          "lat": -27.83333,
          "lon": -55.41667
        },
        {
          "name": "Departamento de Eldorado",
          "lat": -26.25,
          "lon": -54.41667
        },
        {
          "name": "Departamento de General Manuel Belgrano",
          "lat": -26.16667,
          "lon": -53.91667
        },
        {
          "name": "Departamento de Guaraní",
          "lat": -27.16667,
          "lon": -54.16667
        },
        {
          "name": "Departamento de Iguazú",
          "lat": -25.86667,
          "lon": -54.36667
        },
        {
          "name": "Departamento de Leandro N. Alem",
          "lat": -27.56667,
          "lon": -55.33333
        },
        {
          "name": "Departamento de Libertador General San Martín",
          "lat": -26.91667,
          "lon": -54.91667
        },
        {
          "name": "Departamento de Montecarlo",
          "lat": -26.71667,
          "lon": -54.58333
        },
        {
          "name": "Departamento de Oberá",
          "lat": -27.55,
          "lon": -55.08333
        },
        {
          "name": "Departamento de San Ignacio",
          "lat": -27.25,
          "lon": -55.33333
        },
        {
          "name": "Departamento de San Javier",
          "lat": -27.77806,
          "lon": -55.13004
        },
        {
          "name": "Departamento de San Pedro",
          "lat": -26.66667,
          "lon": -54
        },
        {
          "name": "Departamento de Veinticinco de Mayo",
          "lat": -27.41667,
          "lon": -54.66667
        },
        {
          "name": "Dos Arroyos",
          "lat": -27.69946,
          "lon": -55.25207
        },
        {
          "name": "Dos de Mayo",
          "lat": -27.02277,
          "lon": -54.68669
        },
        {
          "name": "El Alcázar",
          "lat": -26.71459,
          "lon": -54.81523
        },
        {
          "name": "El Soberbio",
          "lat": -27.29847,
          "lon": -54.19877
        },
        {
          "name": "Florentino Ameghino",
          "lat": -27.56667,
          "lon": -55.13333
        },
        {
          "name": "Garuhapé",
          "lat": -26.81768,
          "lon": -54.95665
        },
        {
          "name": "Garupá",
          "lat": -27.48171,
          "lon": -55.82921
        },
        {
          "name": "General Alvear",
          "lat": -27.42611,
          "lon": -55.16916
        },
        {
          "name": "Gobernador Roca",
          "lat": -27.18636,
          "lon": -55.46433
        },
        {
          "name": "Guaraní",
          "lat": -27.52323,
          "lon": -55.16077
        },
        {
          "name": "Jardín América",
          "lat": -27.04346,
          "lon": -55.22698
        },
        {
          "name": "Loreto",
          "lat": -27.33177,
          "lon": -55.52499
        },
        {
          "name": "Los Helechos",
          "lat": -27.55051,
          "lon": -55.07908
        },
        {
          "name": "Mártires",
          "lat": -27.42265,
          "lon": -55.37659
        },
        {
          "name": "Mojón Grande",
          "lat": -27.71165,
          "lon": -55.15631
        },
        {
          "name": "Montecarlo",
          "lat": -26.5662,
          "lon": -54.757
        },
        {
          "name": "Oberá",
          "lat": -27.48706,
          "lon": -55.11994
        },
        {
          "name": "Panambí",
          "lat": -27.72369,
          "lon": -54.91515
        },
        {
          "name": "Picada Gobernador López",
          "lat": -27.67069,
          "lon": -55.24585
        },
        {
          "name": "Posadas",
          "lat": -27.36708,
          "lon": -55.89608
        },
        {
          "name": "Puerto Eldorado",
          "lat": -26.40843,
          "lon": -54.69463
        },
        {
          "name": "Puerto Esperanza",
          "lat": -26.02267,
          "lon": -54.61356
        },
        {
          "name": "Puerto Iguazú",
          "lat": -25.59912,
          "lon": -54.57355
        },
        {
          "name": "Puerto Leoni",
          "lat": -26.98762,
          "lon": -55.16569
        },
        {
          "name": "Puerto Libertad",
          "lat": -25.91958,
          "lon": -54.58229
        },
        {
          "name": "Puerto Piray",
          "lat": -26.46937,
          "lon": -54.70736
        },
        {
          "name": "Puerto Rico",
          "lat": -26.79598,
          "lon": -55.02402
        },
        {
          "name": "Ruiz de Montoya",
          "lat": -26.98333,
          "lon": -55.05
        },
        {
          "name": "San José",
          "lat": -27.76979,
          "lon": -55.7826
        },
        {
          "name": "San Pedro",
          "lat": -26.62207,
          "lon": -54.10842
        },
        {
          "name": "San Vicente",
          "lat": -26.61667,
          "lon": -54.13333
        },
        {
          "name": "Santa María",
          "lat": -27.9349,
          "lon": -55.40742
        },
        {
          "name": "Santo Pipó",
          "lat": -27.14132,
          "lon": -55.40867
        },
        {
          "name": "Tres Capones",
          "lat": -28.00641,
          "lon": -55.60471
        },
        {
          "name": "Veinticinco de Mayo",
          "lat": -27.37679,
          "lon": -54.74312
        },
        {
          "name": "Wanda",
          "lat": -25.96879,
          "lon": -54.56285
        }
      ]
    },
    {
      "name": "Neuquén",
      "stateCode": "Q",
      "lat": -38.94587,
      "lon": -68.0730925,
      "cities": [
        {
          "name": "Aluminé",
          "lat": -39.23686,
          "lon": -70.9197
        },
        {
          "name": "Andacollo",
          "lat": -37.17945,
          "lon": -70.66912
        },
        {
          "name": "Añelo",
          "lat": -38.35441,
          "lon": -68.7884
        },
        {
          "name": "Barrancas",
          "lat": -36.82344,
          "lon": -69.91564
        },
        {
          "name": "Buta Ranquil",
          "lat": -37.05222,
          "lon": -69.87713
        },
        {
          "name": "Centenario",
          "lat": -38.82955,
          "lon": -68.1318
        },
        {
          "name": "Chos Malal",
          "lat": -37.37809,
          "lon": -70.27085
        },
        {
          "name": "Cutral-Có",
          "lat": -38.93424,
          "lon": -69.23052
        },
        {
          "name": "Departamento de Aluminé",
          "lat": -39.16667,
          "lon": -71
        },
        {
          "name": "Departamento de Añelo",
          "lat": -38.16667,
          "lon": -69
        },
        {
          "name": "Departamento de Catán-Lil",
          "lat": -39.5,
          "lon": -70.33333
        },
        {
          "name": "Departamento de Chos-Malal",
          "lat": -36.91667,
          "lon": -70.16667
        },
        {
          "name": "Departamento de Collón-Curá",
          "lat": -40.08333,
          "lon": -70.16667
        },
        {
          "name": "Departamento de Confluencia",
          "lat": -38.83333,
          "lon": -68.83333
        },
        {
          "name": "Departamento de Lácar",
          "lat": -40.25,
          "lon": -71.2
        },
        {
          "name": "Departamento de Minas",
          "lat": -36.83333,
          "lon": -70.83333
        },
        {
          "name": "Departamento de Zapala",
          "lat": -39,
          "lon": -69.83333
        },
        {
          "name": "El Huecú",
          "lat": -37.64522,
          "lon": -70.58006
        },
        {
          "name": "Junín de los Andes",
          "lat": -39.95043,
          "lon": -71.06936
        },
        {
          "name": "Las Coloradas",
          "lat": -39.55534,
          "lon": -70.59491
        },
        {
          "name": "Las Lajas",
          "lat": -38.52322,
          "lon": -70.36745
        },
        {
          "name": "Las Ovejas",
          "lat": -36.98881,
          "lon": -70.74991
        },
        {
          "name": "Loncopué",
          "lat": -38.07284,
          "lon": -70.61609
        },
        {
          "name": "Mariano Moreno",
          "lat": -38.75029,
          "lon": -70.02367
        },
        {
          "name": "Neuquén",
          "lat": -38.95161,
          "lon": -68.0591
        },
        {
          "name": "Picún Leufú",
          "lat": -39.51614,
          "lon": -69.28765
        },
        {
          "name": "Piedra del Águila",
          "lat": -40.04811,
          "lon": -70.0741
        },
        {
          "name": "Plaza Huincul",
          "lat": -38.92598,
          "lon": -69.20863
        },
        {
          "name": "Plottier",
          "lat": -38.96667,
          "lon": -68.23333
        },
        {
          "name": "San Martín de los Andes",
          "lat": -40.15789,
          "lon": -71.35337
        },
        {
          "name": "Senillosa",
          "lat": -39.01412,
          "lon": -68.43281
        },
        {
          "name": "Villa La Angostura",
          "lat": -40.76173,
          "lon": -71.64631
        },
        {
          "name": "Vista Alegre",
          "lat": -38.75,
          "lon": -68.18333
        },
        {
          "name": "Zapala",
          "lat": -38.89916,
          "lon": -70.05442
        }
      ]
    },
    {
      "name": "Río Negro",
      "stateCode": "R",
      "lat": -40.8261434,
      "lon": -63.0266339,
      "cities": [
        {
          "name": "Allen",
          "lat": -38.97736,
          "lon": -67.82714
        },
        {
          "name": "Catriel",
          "lat": -37.87907,
          "lon": -67.7956
        },
        {
          "name": "Cervantes",
          "lat": -39.05444,
          "lon": -67.39426
        },
        {
          "name": "Chichinales",
          "lat": -39.11505,
          "lon": -66.92714
        },
        {
          "name": "Chimpay",
          "lat": -39.16482,
          "lon": -66.14236
        },
        {
          "name": "Choele Choel",
          "lat": -39.28941,
          "lon": -65.6606
        },
        {
          "name": "Cinco Saltos",
          "lat": -38.82225,
          "lon": -68.06293
        },
        {
          "name": "Cipolletti",
          "lat": -38.93392,
          "lon": -67.99032
        },
        {
          "name": "Comallo",
          "lat": -41.02993,
          "lon": -70.26784
        },
        {
          "name": "Contraalmirante Cordero",
          "lat": -38.72423,
          "lon": -68.15284
        },
        {
          "name": "Coronel Belisle",
          "lat": -39.18688,
          "lon": -65.95422
        },
        {
          "name": "Darwin",
          "lat": -39.20334,
          "lon": -65.73952
        },
        {
          "name": "Departamento de Avellaneda",
          "lat": -39.5,
          "lon": -66.5
        },
        {
          "name": "Departamento de Veinticinco de Mayo",
          "lat": -41.25,
          "lon": -69
        },
        {
          "name": "El Bolsón",
          "lat": -41.96051,
          "lon": -71.53336
        },
        {
          "name": "El Cuy",
          "lat": -39.92685,
          "lon": -68.34208
        },
        {
          "name": "Fray Luis Beltrán",
          "lat": -39.31369,
          "lon": -65.76002
        },
        {
          "name": "General Conesa",
          "lat": -40.10408,
          "lon": -64.45592
        },
        {
          "name": "General Enrique Godoy",
          "lat": -39.07891,
          "lon": -67.15807
        },
        {
          "name": "General Fernández Oro",
          "lat": -38.95297,
          "lon": -67.92489
        },
        {
          "name": "General Roca",
          "lat": -39.03333,
          "lon": -67.58333
        },
        {
          "name": "Ingeniero Jacobacci",
          "lat": -41.3292,
          "lon": -69.55015
        },
        {
          "name": "Ingeniero Luis A. Huergo",
          "lat": -39.07146,
          "lon": -67.2379
        },
        {
          "name": "Lamarque",
          "lat": -39.42304,
          "lon": -65.70208
        },
        {
          "name": "Los Menucos",
          "lat": -40.84402,
          "lon": -68.08718
        },
        {
          "name": "Mainque",
          "lat": -39.06667,
          "lon": -67.3
        },
        {
          "name": "Maquinchao",
          "lat": -41.24912,
          "lon": -68.70321
        },
        {
          "name": "Ñorquinco",
          "lat": -41.85072,
          "lon": -70.90173
        },
        {
          "name": "Pilcaniyeu",
          "lat": -41.12288,
          "lon": -70.72152
        },
        {
          "name": "Río Colorado",
          "lat": -38.99397,
          "lon": -64.09295
        },
        {
          "name": "San Antonio Oeste",
          "lat": -40.73193,
          "lon": -64.94769
        },
        {
          "name": "San Carlos de Bariloche",
          "lat": -41.14557,
          "lon": -71.30822
        },
        {
          "name": "Sierra Colorada",
          "lat": -40.58487,
          "lon": -67.75674
        },
        {
          "name": "Sierra Grande",
          "lat": -41.60603,
          "lon": -65.35574
        },
        {
          "name": "Valcheta",
          "lat": -40.67989,
          "lon": -66.16283
        },
        {
          "name": "Viedma",
          "lat": -40.81345,
          "lon": -62.99668
        },
        {
          "name": "Villa Regina",
          "lat": -39.1,
          "lon": -67.06667
        }
      ]
    },
    {
      "name": "Salta",
      "stateCode": "A",
      "lat": -24.7997688,
      "lon": -65.4150367,
      "cities": [
        {
          "name": "Apolinario Saravia",
          "lat": -24.43276,
          "lon": -63.99535
        },
        {
          "name": "Cachí",
          "lat": -25.12033,
          "lon": -66.16519
        },
        {
          "name": "Cafayate",
          "lat": -26.08333,
          "lon": -65.83333
        },
        {
          "name": "Campo Quijano",
          "lat": -24.90982,
          "lon": -65.63656
        },
        {
          "name": "Chicoana",
          "lat": -25.10502,
          "lon": -65.53473
        },
        {
          "name": "Departamento Capital",
          "lat": -24.83333,
          "lon": -65.33333
        },
        {
          "name": "Departamento de Anta",
          "lat": -24.91667,
          "lon": -64
        },
        {
          "name": "Departamento de Cerrillos",
          "lat": -25,
          "lon": -65.41667
        },
        {
          "name": "Departamento de Chicoana",
          "lat": -25.11583,
          "lon": -65.59466
        },
        {
          "name": "Departamento de General Güemes",
          "lat": -24.79464,
          "lon": -64.94393
        },
        {
          "name": "Departamento de Guachipas",
          "lat": -25.66667,
          "lon": -65.5
        },
        {
          "name": "Departamento de Iruya",
          "lat": -22.8,
          "lon": -64.91667
        },
        {
          "name": "Departamento de La Poma",
          "lat": -24.16667,
          "lon": -66.16667
        },
        {
          "name": "Departamento de La Viña",
          "lat": -25.5,
          "lon": -65.66667
        },
        {
          "name": "Departamento de Los Andes",
          "lat": -24.5,
          "lon": -67.33333
        },
        {
          "name": "Departamento de Metán",
          "lat": -25.5,
          "lon": -64.66667
        },
        {
          "name": "Departamento de Rivadavia",
          "lat": -23.66667,
          "lon": -62.91667
        },
        {
          "name": "Departamento de Rosario de la Frontera",
          "lat": -25.91667,
          "lon": -64.83333
        },
        {
          "name": "Departamento de Rosario de Lerma",
          "lat": -24.58333,
          "lon": -65.83333
        },
        {
          "name": "Departamento de San Carlos",
          "lat": -25.75,
          "lon": -66.08333
        },
        {
          "name": "El Carril",
          "lat": -25.0741,
          "lon": -65.49174
        },
        {
          "name": "El Galpón",
          "lat": -25.38069,
          "lon": -64.65259
        },
        {
          "name": "El Quebrachal",
          "lat": -25.28333,
          "lon": -64.06667
        },
        {
          "name": "Embarcación",
          "lat": -23.21003,
          "lon": -64.09965
        },
        {
          "name": "General Enrique Mosconi",
          "lat": -22.59588,
          "lon": -63.81255
        },
        {
          "name": "Joaquín V. González",
          "lat": -25.11364,
          "lon": -64.12628
        },
        {
          "name": "La Caldera",
          "lat": -24.58333,
          "lon": -65.41667
        },
        {
          "name": "Las Lajitas",
          "lat": -24.72762,
          "lon": -64.19335
        },
        {
          "name": "Salta",
          "lat": -24.7859,
          "lon": -65.41166
        },
        {
          "name": "San Antonio de los Cobres",
          "lat": -24.21804,
          "lon": -66.31877
        },
        {
          "name": "San Ramón de la Nueva Orán",
          "lat": -23.13705,
          "lon": -64.32426
        },
        {
          "name": "Santa Rosa de Tastil",
          "lat": -24.45166,
          "lon": -65.97452
        },
        {
          "name": "Tartagal",
          "lat": -22.51637,
          "lon": -63.80131
        }
      ]
    },
    {
      "name": "San Juan",
      "stateCode": "J",
      "lat": -31.5316976,
      "lon": -68.5676962,
      "cities": [
        {
          "name": "Albardón",
          "lat": -31.43722,
          "lon": -68.52556
        },
        {
          "name": "Calingasta",
          "lat": -31.33394,
          "lon": -69.4208
        },
        {
          "name": "Caucete",
          "lat": -31.65179,
          "lon": -68.28105
        },
        {
          "name": "Chimbas",
          "lat": -31.48333,
          "lon": -68.53333
        },
        {
          "name": "Departamento de Albardón",
          "lat": -31.28333,
          "lon": -68.41667
        },
        {
          "name": "Departamento de Angaco",
          "lat": -31.2,
          "lon": -68.13333
        },
        {
          "name": "Departamento de Calingasta",
          "lat": -31.5,
          "lon": -69.75
        },
        {
          "name": "Departamento de Capital",
          "lat": -31.53333,
          "lon": -68.53333
        },
        {
          "name": "Departamento de Caucete",
          "lat": -31.45,
          "lon": -67.66667
        },
        {
          "name": "Departamento de Chimbas",
          "lat": -31.48738,
          "lon": -68.52691
        },
        {
          "name": "Departamento de Iglesia",
          "lat": -29.33333,
          "lon": -69.58333
        },
        {
          "name": "Departamento de Jáchal",
          "lat": -30.5,
          "lon": -68.5
        },
        {
          "name": "Departamento de Nueve de Julio",
          "lat": -31.65072,
          "lon": -68.38925
        },
        {
          "name": "Departamento de Rawson",
          "lat": -31.7,
          "lon": -68.46667
        },
        {
          "name": "Departamento de Rivadavia",
          "lat": -31.5645,
          "lon": -68.65219
        },
        {
          "name": "Departamento de San Martín",
          "lat": -31.5,
          "lon": -68.25
        },
        {
          "name": "Departamento de Santa Lucía",
          "lat": -31.53333,
          "lon": -68.46667
        },
        {
          "name": "Departamento de Sarmiento",
          "lat": -32,
          "lon": -68.66667
        },
        {
          "name": "Departamento de Ullúm",
          "lat": -31,
          "lon": -68.91667
        },
        {
          "name": "Departamento de Zonda",
          "lat": -31.6826,
          "lon": -68.89938
        },
        {
          "name": "Nueve de Julio",
          "lat": -31.66914,
          "lon": -68.39023
        },
        {
          "name": "Pocito",
          "lat": -31.68333,
          "lon": -68.58333
        },
        {
          "name": "San Agustín de Valle Fértil",
          "lat": -30.63353,
          "lon": -67.46821
        },
        {
          "name": "San José de Jáchal",
          "lat": -30.24057,
          "lon": -68.74693
        },
        {
          "name": "San Juan",
          "lat": -31.5375,
          "lon": -68.53639
        },
        {
          "name": "San Martín",
          "lat": -31.42957,
          "lon": -68.50065
        },
        {
          "name": "Santa Lucía",
          "lat": -31.53987,
          "lon": -68.49503
        },
        {
          "name": "Villa Basilio Nievas",
          "lat": -31.55,
          "lon": -68.73333
        },
        {
          "name": "Villa Paula de Sarmiento",
          "lat": -31.4933,
          "lon": -68.53838
        }
      ]
    },
    {
      "name": "San Luis",
      "stateCode": "D",
      "lat": -33.2962042,
      "lon": -66.3294948,
      "cities": [
        {
          "name": "Buena Esperanza",
          "lat": -34.75647,
          "lon": -65.25379
        },
        {
          "name": "Candelaria",
          "lat": -32.06036,
          "lon": -65.82477
        },
        {
          "name": "Concarán",
          "lat": -32.56009,
          "lon": -65.2427
        },
        {
          "name": "Juan Martín de Pueyrredón",
          "lat": -33.27544,
          "lon": -66.32017
        },
        {
          "name": "Justo Daract",
          "lat": -33.8594,
          "lon": -65.18277
        },
        {
          "name": "La Punta",
          "lat": -33.18368,
          "lon": -66.3127
        },
        {
          "name": "La Toma",
          "lat": -33.05258,
          "lon": -65.62385
        },
        {
          "name": "Luján",
          "lat": -32.36674,
          "lon": -65.93642
        },
        {
          "name": "Merlo",
          "lat": -32.34288,
          "lon": -65.01396
        },
        {
          "name": "Naschel",
          "lat": -32.91656,
          "lon": -65.37535
        },
        {
          "name": "San Francisco del Monte de Oro",
          "lat": -32.59825,
          "lon": -66.12539
        },
        {
          "name": "San Luis",
          "lat": -33.29501,
          "lon": -66.33563
        },
        {
          "name": "Santa Rosa del Conlara",
          "lat": -32.34286,
          "lon": -65.20323
        },
        {
          "name": "Tilisarao",
          "lat": -32.73292,
          "lon": -65.29109
        },
        {
          "name": "Unión",
          "lat": -35.15282,
          "lon": -65.94602
        },
        {
          "name": "Villa General Roca",
          "lat": -32.66535,
          "lon": -66.45052
        },
        {
          "name": "Villa Mercedes",
          "lat": -33.67571,
          "lon": -65.45783
        }
      ]
    },
    {
      "name": "Santa Cruz",
      "stateCode": "Z",
      "lat": -51.6352821,
      "lon": -69.2474353,
      "cities": [
        {
          "name": "28 de Noviembre",
          "lat": -51.5839,
          "lon": -72.21382
        },
        {
          "name": "Caleta Olivia",
          "lat": -46.43929,
          "lon": -67.52814
        },
        {
          "name": "Comandante Luis Piedra Buena",
          "lat": -49.98513,
          "lon": -68.91467
        },
        {
          "name": "Departamento de Deseado",
          "lat": -47.33333,
          "lon": -67.83333
        },
        {
          "name": "Departamento de Güer Aike",
          "lat": -51.33333,
          "lon": -70.33333
        },
        {
          "name": "Departamento de Lago Argentino",
          "lat": -49.75,
          "lon": -72
        },
        {
          "name": "Departamento de Magallanes",
          "lat": -48.75,
          "lon": -68.5
        },
        {
          "name": "Departamento de Río Chico",
          "lat": -48.25,
          "lon": -71
        },
        {
          "name": "El Calafate",
          "lat": -50.34075,
          "lon": -72.27682
        },
        {
          "name": "Gobernador Gregores",
          "lat": -48.75057,
          "lon": -70.24741
        },
        {
          "name": "Las Heras",
          "lat": -46.54186,
          "lon": -68.93593
        },
        {
          "name": "Los Antiguos",
          "lat": -46.54972,
          "lon": -71.63086
        },
        {
          "name": "Perito Moreno",
          "lat": -46.58995,
          "lon": -70.92975
        },
        {
          "name": "Pico Truncado",
          "lat": -46.7949,
          "lon": -67.95731
        },
        {
          "name": "Puerto Deseado",
          "lat": -47.75034,
          "lon": -65.89382
        },
        {
          "name": "Puerto Santa Cruz",
          "lat": -50.0191,
          "lon": -68.52321
        },
        {
          "name": "Río Gallegos",
          "lat": -51.62261,
          "lon": -69.21813
        },
        {
          "name": "Río Turbio",
          "lat": -51.53587,
          "lon": -72.33673
        },
        {
          "name": "San Julián",
          "lat": -49.30554,
          "lon": -67.72743
        },
        {
          "name": "Yacimiento Río Turbio",
          "lat": -51.57321,
          "lon": -72.3508
        }
      ]
    },
    {
      "name": "Santa Fe",
      "stateCode": "S",
      "lat": -31.5855109,
      "lon": -60.7238016,
      "cities": [
        {
          "name": "Armstrong",
          "lat": -32.78215,
          "lon": -61.60222
        },
        {
          "name": "Arroyo Seco",
          "lat": -33.15489,
          "lon": -60.50863
        },
        {
          "name": "Arrufó",
          "lat": -30.23281,
          "lon": -61.72862
        },
        {
          "name": "Avellaneda",
          "lat": -29.11761,
          "lon": -59.65834
        },
        {
          "name": "Bella Italia",
          "lat": -31.28182,
          "lon": -61.41092
        },
        {
          "name": "Calchaquí",
          "lat": -29.88767,
          "lon": -60.28697
        },
        {
          "name": "Cañada de Gómez",
          "lat": -32.81636,
          "lon": -61.39493
        },
        {
          "name": "Capitán Bermúdez",
          "lat": -32.82262,
          "lon": -60.71852
        },
        {
          "name": "Carcarañá",
          "lat": -32.85679,
          "lon": -61.15331
        },
        {
          "name": "Casilda",
          "lat": -33.04417,
          "lon": -61.16806
        },
        {
          "name": "Ceres",
          "lat": -29.881,
          "lon": -61.94504
        },
        {
          "name": "Chañar Ladeado",
          "lat": -33.32524,
          "lon": -62.03831
        },
        {
          "name": "Coronda",
          "lat": -31.97263,
          "lon": -60.91983
        },
        {
          "name": "Departamento de Belgrano",
          "lat": -32.5,
          "lon": -61.75
        },
        {
          "name": "Departamento de Caseros",
          "lat": -33.25,
          "lon": -61.66667
        },
        {
          "name": "Departamento de Castellanos",
          "lat": -31.16667,
          "lon": -61.66667
        },
        {
          "name": "Departamento de Constitución",
          "lat": -33.5,
          "lon": -60.91667
        },
        {
          "name": "Departamento de La Capital",
          "lat": -31.5,
          "lon": -60.66667
        },
        {
          "name": "Departamento de Nueve de Julio",
          "lat": -28.83333,
          "lon": -61.33333
        },
        {
          "name": "Departamento de San Cristóbal",
          "lat": -30.33333,
          "lon": -61.33333
        },
        {
          "name": "Departamento de San Javier",
          "lat": -30.33333,
          "lon": -59.91667
        },
        {
          "name": "Departamento de San Justo",
          "lat": -30.66667,
          "lon": -60.5
        },
        {
          "name": "Departamento de San Lorenzo",
          "lat": -33,
          "lon": -61
        },
        {
          "name": "Departamento de San Martín",
          "lat": -32,
          "lon": -61.83333
        },
        {
          "name": "Departamento de Vera",
          "lat": -29,
          "lon": -60.5
        },
        {
          "name": "El Trébol",
          "lat": -32.2008,
          "lon": -61.7014
        },
        {
          "name": "Esperanza",
          "lat": -31.4488,
          "lon": -60.93173
        },
        {
          "name": "Firmat",
          "lat": -33.45937,
          "lon": -61.4832
        },
        {
          "name": "Fray Luis A. Beltrán",
          "lat": -32.79122,
          "lon": -60.72819
        },
        {
          "name": "Funes",
          "lat": -32.91568,
          "lon": -60.80995
        },
        {
          "name": "Gálvez",
          "lat": -32.02927,
          "lon": -61.22103
        },
        {
          "name": "Gato Colorado",
          "lat": -28.02219,
          "lon": -61.18663
        },