{
  "iso2": "AT",
  "name": "Austria",
  "nativeName": "Austria",
  "lat": 47.33333333,
  "lon": 13.33333333,
  "states": [
    {
      "name": "Burgenland",
      "stateCode": "1",
      "lat": 47.1537165,
      "lon": 16.2688797,
      "cities": [
        {
          "name": "Andau",
          "lat": 47.77441,
          "lon": 17.03293
        },
        {
          "name": "Antau",
          "lat": 47.77377,
          "lon": 16.47984
        },
        {
          "name": "Apetlon",
          "lat": 47.74394,
          "lon": 16.8302
        },
        {
          "name": "Bad Sauerbrunn",
          "lat": 47.77439,
          "lon": 16.32841
        },
        {
          "name": "Bad Tatzmannsdorf",
          "lat": 47.33126,
          "lon": 16.23067
        },
        {
          "name": "Badersdorf",
          "lat": 47.2,
          "lon": 16.36667
        },
        {
          "name": "Bernstein",
          "lat": 47.4,
          "lon": 16.25
        },
        {
          "name": "Bocksdorf",
          "lat": 47.14256,
          "lon": 16.17784
        },
        {
          "name": "Breitenbrunn",
          "lat": 47.94452,
          "lon": 16.73149
        },
        {
          "name": "Bruckneudorf",
          "lat": 48.01667,
          "lon": 16.78333
        },
        {
          "name": "Deutsch Jahrndorf",
          "lat": 48.01667,
          "lon": 17.1
        },
        {
          "name": "Deutsch Kaltenbrunn",
          "lat": 47.09455,
          "lon": 16.13145
        },
        {
          "name": "Deutschkreutz",
          "lat": 47.6,
          "lon": 16.63333
        },
        {
          "name": "Donnerskirchen",
          "lat": 47.89425,
          "lon": 16.64635
        },
        {
          "name": "Drassburg",
          "lat": 47.74645,
          "lon": 16.48679
        },
        {
          "name": "Eberau",
          "lat": 47.10764,
          "lon": 16.46044
        },
        {
          "name": "Edelstal",
          "lat": 48.1,
          "lon": 16.98333
        },
        {
          "name": "Eisenstadt",
          "lat": 47.84565,
          "lon": 16.52327
        },
        {
          "name": "Eisenstadt Stadt",
          "lat": 47.8445,
          "lon": 16.52575
        },
        {
          "name": "Eisenstadt-Umgebung",
          "lat": 47.83333,
          "lon": 16.58333
        },
        {
          "name": "Eltendorf",
          "lat": 47.0087,
          "lon": 16.20239
        },
        {
          "name": "Forchtenstein",
          "lat": 47.71161,
          "lon": 16.34525
        },
        {
          "name": "Frauenkirchen",
          "lat": 47.83678,
          "lon": 16.92581
        },
        {
          "name": "Gattendorf",
          "lat": 48.01667,
          "lon": 16.98333
        },
        {
          "name": "Gols",
          "lat": 47.89689,
          "lon": 16.91113
        },
        {
          "name": "Grafenschachen",
          "lat": 47.36667,
          "lon": 16.06667
        },
        {
          "name": "Grosshöflein",
          "lat": 47.83586,
          "lon": 16.48035
        },
        {
          "name": "Grosspetersdorf",
          "lat": 47.23895,
          "lon": 16.31783
        },
        {
          "name": "Güssing",
          "lat": 47.05936,
          "lon": 16.32431
        },
        {
          "name": "Güttenbach",
          "lat": 47.1571,
          "lon": 16.2923
        },
        {
          "name": "Hackerberg",
          "lat": 47.2,
          "lon": 16.11667
        },
        {
          "name": "Halbturn",
          "lat": 47.87019,
          "lon": 16.97542
        },
        {
          "name": "Hannersdorf",
          "lat": 47.22895,
          "lon": 16.3825
        },
        {
          "name": "Heiligenbrunn",
          "lat": 47.02705,
          "lon": 16.41688
        },
        {
          "name": "Heiligenkreuz im Lafnitztal",
          "lat": 46.98917,
          "lon": 16.26083
        },
        {
          "name": "Heugraben",
          "lat": 47.11783,
          "lon": 16.19041
        },
        {
          "name": "Hirm",
          "lat": 47.78652,
          "lon": 16.4546
        },
        {
          "name": "Horitschon",
          "lat": 47.58729,
          "lon": 16.54696
        },
        {
          "name": "Hornstein",
          "lat": 47.88049,
          "lon": 16.44447
        },
        {
          "name": "Illmitz",
          "lat": 47.76148,
          "lon": 16.80024
        },
        {
          "name": "Inzenhof",
          "lat": 47.01667,
          "lon": 16.31667
        },
        {
          "name": "Jabing",
          "lat": 47.2388,
          "lon": 16.27659
        },
        {
          "name": "Jennersdorf",
          "lat": 46.93848,
          "lon": 16.14158
        },
        {
          "name": "Jois",
          "lat": 47.96165,
          "lon": 16.79604
        },
        {
          "name": "Kaisersdorf",
          "lat": 47.53741,
          "lon": 16.39198
        },
        {
          "name": "Kemeten",
          "lat": 47.24859,
          "lon": 16.15213
        },
        {
          "name": "Kittsee",
          "lat": 48.0925,
          "lon": 17.06389
        },
        {
          "name": "Kleinhöflein im Burgenland",
          "lat": 47.84151,
          "lon": 16.50413
        },
        {
          "name": "Kleinmürbisch",
          "lat": 47.03299,
          "lon": 16.32448
        },
        {
          "name": "Klingenbach",
          "lat": 47.75202,
          "lon": 16.54069
        },
        {
          "name": "Kobersdorf",
          "lat": 47.59572,
          "lon": 16.39173
        },
        {
          "name": "Kohfidisch",
          "lat": 47.17472,
          "lon": 16.35701
        },
        {
          "name": "Königsdorf",
          "lat": 47,
          "lon": 16.16667
        },
        {
          "name": "Krensdorf",
          "lat": 47.78552,
          "lon": 16.41495
        },
        {
          "name": "Kukmirn",
          "lat": 47.07544,
          "lon": 16.21033
        },
        {
          "name": "Lackenbach",
          "lat": 47.59042,
          "lon": 16.46533
        },
        {
          "name": "Lackendorf",
          "lat": 47.58996,
          "lon": 16.50404
        },
        {
          "name": "Leithaprodersdorf",
          "lat": 47.93348,
          "lon": 16.47915
        },
        {
          "name": "Litzelsdorf",
          "lat": 47.20826,
          "lon": 16.1717
        },
        {
          "name": "Lockenhaus",
          "lat": 47.40753,
          "lon": 16.41623
        },
        {
          "name": "Loipersbach im Burgenland",
          "lat": 47.69656,
          "lon": 16.47919
        },
        {
          "name": "Loretto",
          "lat": 47.91559,
          "lon": 16.5179
        },
        {
          "name": "Lutzmannsburg",
          "lat": 47.46373,
          "lon": 16.63665
        },
        {
          "name": "Mannersdorf an der Rabnitz",
          "lat": 47.42815,
          "lon": 16.52678
        },
        {
          "name": "Mariasdorf",
          "lat": 47.3658,
          "lon": 16.23136
        },
        {
          "name": "Markt Allhau",
          "lat": 47.28333,
          "lon": 16.08333
        },
        {
          "name": "Markt Neuhodis",
          "lat": 47.29565,
          "lon": 16.39564
        },
        {
          "name": "Markt Sankt Martin",
          "lat": 47.56205,
          "lon": 16.42508
        },
        {
          "name": "Marz",
          "lat": 47.71667,
          "lon": 16.41667
        },
        {
          "name": "Mattersburg",
          "lat": 47.73333,
          "lon": 16.4
        },
        {
          "name": "Mischendorf",
          "lat": 47.19277,
          "lon": 16.31444
        },
        {
          "name": "Mitterpullendorf",
          "lat": 47.49325,
          "lon": 16.52129
        },
        {
          "name": "Mogersdorf",
          "lat": 46.94917,
          "lon": 16.23222
        },
        {
          "name": "Mönchhof",
          "lat": 47.8802,
          "lon": 16.94126
        },
        {
          "name": "Mörbisch am See",
          "lat": 47.75,
          "lon": 16.66667
        },
        {
          "name": "Moschendorf",
          "lat": 47.05843,
          "lon": 16.47728
        },
        {
          "name": "Mühlgraben",
          "lat": 46.88972,
          "lon": 16.04083
        },
        {
          "name": "Müllendorf",
          "lat": 47.83943,
          "lon": 16.46258
        },
        {
          "name": "Neckenmarkt",
          "lat": 47.59964,
          "lon": 16.5467
        },
        {
          "name": "Neuberg im Burgenland",
          "lat": 47.16894,
          "lon": 16.26054
        },
        {
          "name": "Neudörfl",
          "lat": 47.79655,
          "lon": 16.2977
        },
        {
          "name": "Neufeld an der Leitha",
          "lat": 47.86558,
          "lon": 16.37856
        },
        {
          "name": "Neuhaus am Klausenbach",
          "lat": 46.86667,
          "lon": 16.03333
        },
        {
          "name": "Neusiedl am See",
          "lat": 47.94901,
          "lon": 16.8417
        },
        {
          "name": "Neustift an der Lafnitz",
          "lat": 47.36667,
          "lon": 16.03333
        },
        {
          "name": "Neustift bei Güssing",
          "lat": 47.02474,
          "lon": 16.26041
        },
        {
          "name": "Neutal",
          "lat": 47.54548,
          "lon": 16.44619
        },
        {
          "name": "Nickelsdorf",
          "lat": 47.94056,
          "lon": 17.06944
        },
        {
          "name": "Nikitsch",
          "lat": 47.53615,
          "lon": 16.66017
        },
        {
          "name": "Oberdorf im Burgenland",
          "lat": 47.21667,
          "lon": 16.21667
        },
        {
          "name": "Oberloisdorf",
          "lat": 47.44736,
          "lon": 16.50764
        },
        {
          "name": "Oberpullendorf",
          "lat": 47.50352,
          "lon": 16.50447
        },
        {
          "name": "Oberschützen",
          "lat": 47.35138,
          "lon": 16.20732
        },
        {
          "name": "Oberwart",
          "lat": 47.28971,
          "lon": 16.20595
        },
        {
          "name": "Oggau",
          "lat": 47.83333,
          "lon": 16.66667
        },
        {
          "name": "Olbendorf",
          "lat": 47.18333,
          "lon": 16.2
        },
        {
          "name": "Ollersdorf im Burgenland",
          "lat": 47.18333,
          "lon": 16.16667
        },
        {
          "name": "Oslip",
          "lat": 47.82906,
          "lon": 16.61957
        },
        {
          "name": "Pama",
          "lat": 48.05,
          "lon": 17.03333
        },
        {
          "name": "Pamhagen",
          "lat": 47.70092,
          "lon": 16.90779
        },
        {
          "name": "Parndorf",
          "lat": 47.99963,
          "lon": 16.86049
        },
        {
          "name": "Pilgersdorf",
          "lat": 47.44106,
          "lon": 16.3492
        },
        {
          "name": "Pinkafeld",
          "lat": 47.36667,
          "lon": 16.11667
        },
        {
          "name": "Piringsdorf",
          "lat": 47.44826,
          "lon": 16.41516
        },
        {
          "name": "Podersdorf am See",
          "lat": 47.85412,
          "lon": 16.83706
        },
        {
          "name": "Politischer Bezirk Güssing",
          "lat": 47.10164,
          "lon": 16.30363
        },
        {
          "name": "Politischer Bezirk Jennersdorf",
          "lat": 46.96667,
          "lon": 16.15
        },
        {
          "name": "Politischer Bezirk Mattersburg",
          "lat": 47.73823,
          "lon": 16.39486
        },
        {
          "name": "Politischer Bezirk Neusiedl am See",
          "lat": 47.88853,
          "lon": 16.92465
        },
        {
          "name": "Politischer Bezirk Oberpullendorf",
          "lat": 47.50184,
          "lon": 16.50593
        },
        {
          "name": "Politischer Bezirk Oberwart",
          "lat": 47.28854,
          "lon": 16.20861
        },
        {
          "name": "Pöttelsdorf",
          "lat": 47.75369,
          "lon": 16.43864
        },
        {
          "name": "Pöttsching",
          "lat": 47.80445,
          "lon": 16.37109
        },
        {
          "name": "Potzneusiedl",
          "lat": 48.04504,
          "lon": 16.9477
        },
        {
          "name": "Purbach am Neusiedler See",
          "lat": 47.91289,
          "lon": 16.69561
        },
        {
          "name": "Raiding",
          "lat": 47.56581,
          "lon": 16.53056
        },
        {
          "name": "Rechnitz",
          "lat": 47.30467,
          "lon": 16.44095
        },
        {
          "name": "Riedlingsdorf",
          "lat": 47.35,
          "lon": 16.13333
        },
        {
          "name": "Ritzing",
          "lat": 47.61316,
          "lon": 16.49546
        },
        {
          "name": "Rohr im Burgenland",
          "lat": 47.11667,
          "lon": 16.16667
        },
        {
          "name": "Rohrbach bei Mattersburg",
          "lat": 47.7052,
          "lon": 16.43005
        },
        {
          "name": "Rotenturm an der Pinka",
          "lat": 47.25,
          "lon": 16.25
        },
        {
          "name": "Rudersdorf",
          "lat": 47.05,
          "lon": 16.11667
        },
        {
          "name": "Rust",
          "lat": 47.80122,
          "lon": 16.67158
        },
        {
          "name": "Rust Stadt",
          "lat": 47.80174,
          "lon": 16.6721
        },
        {
          "name": "Sankt Andrä am Zicksee",
          "lat": 47.7841,
          "lon": 16.94195
        },
        {
          "name": "Sankt Georgen am Leithagebirge",
          "lat": 47.85,
          "lon": 16.55
        },
        {
          "name": "Sankt Margarethen im Burgenland",
          "lat": 47.80335,
          "lon": 16.60875
        },
        {
          "name": "Sankt Martin an der Raab",
          "lat": 46.9225,
          "lon": 16.13611
        },
        {
          "name": "Sankt Michael im Burgenland",
          "lat": 47.12852,
          "lon": 16.27148
        },
        {
          "name": "Schachendorf",
          "lat": 47.26667,
          "lon": 16.43333
        },
        {
          "name": "Schandorf",
          "lat": 47.24183,
          "lon": 16.42267
        },
        {
          "name": "Schattendorf",
          "lat": 47.70973,
          "lon": 16.50979
        },
        {
          "name": "Schützen am Gebirge",
          "lat": 47.85233,
          "lon": 16.62334
        },
        {
          "name": "Siegendorf im Burgenland",
          "lat": 47.78098,
          "lon": 16.54232
        },
        {
          "name": "Sieggraben",
          "lat": 47.65128,
          "lon": 16.37993
        },
        {
          "name": "Sigless",
          "lat": 47.77533,
          "lon": 16.39503
        },
        {
          "name": "Stadtschlaining",
          "lat": 47.31667,
          "lon": 16.28333
        },
        {
          "name": "Stegersbach",
          "lat": 47.16667,
          "lon": 16.16667
        },
        {
          "name": "Steinbrunn",
          "lat": 47.83333,
          "lon": 16.41667
        },
        {
          "name": "Stinatz",
          "lat": 47.20266,
          "lon": 16.13312
        },
        {
          "name": "Stoob",
          "lat": 47.52845,
          "lon": 16.4776
        },
        {
          "name": "Stotzing",
          "lat": 47.90688,
          "lon": 16.5458
        },
        {
          "name": "Strem",
          "lat": 47.04498,
          "lon": 16.41426
        },
        {
          "name": "Tadten",
          "lat": 47.76667,
          "lon": 16.98333
        },
        {
          "name": "Tobaj",
          "lat": 47.08333,
          "lon": 16.3
        },
        {
          "name": "Trausdorf an der Wulka",
          "lat": 47.8135,
          "lon": 16.5576
        },
        {
          "name": "Tschanigraben",
          "lat": 47.01667,
          "lon": 16.3
        },
        {
          "name": "Unterfrauenhaid",
          "lat": 47.57116,
          "lon": 16.49885
        },
        {
          "name": "Unterkohlstätten",
          "lat": 47.38333,
          "lon": 16.31667
        },
        {
          "name": "Unterwart",
          "lat": 47.25,
          "lon": 16.23333
        },
        {
          "name": "Wallern im Burgenland",
          "lat": 47.72847,
          "lon": 16.93706
        },
        {
          "name": "Weichselbaum",
          "lat": 46.9425,
          "lon": 16.1875
        },
        {
          "name": "Weiden am See",
          "lat": 47.92532,
          "lon": 16.86899
        },
        {
          "name": "Weiden bei Rechnitz",
          "lat": 47.3,
          "lon": 16.35
        },
        {
          "name": "Weingraben",
          "lat": 47.51393,
          "lon": 16.36375
        },
        {
          "name": "Weppersdorf",
          "lat": 47.57954,
          "lon": 16.42679
        },
        {
          "name": "Wiesen",
          "lat": 47.73776,
          "lon": 16.33798
        },
        {
          "name": "Wiesfleck",
          "lat": 47.38458,
          "lon": 16.14552
        },
        {
          "name": "Wimpassing an der Leitha",
          "lat": 47.91667,
          "lon": 16.43333
        },
        {
          "name": "Winden am See",
          "lat": 47.95,
          "lon": 16.75
        },
        {
          "name": "Wolfau",
          "lat": 47.25,
          "lon": 16.1
        },
        {
          "name": "Wörterberg",
          "lat": 47.21667,
          "lon": 16.1
        },
        {
          "name": "Wulkaprodersdorf",
          "lat": 47.79753,
          "lon": 16.50447
        },
        {
          "name": "Zagersdorf",
          "lat": 47.76471,
          "lon": 16.51382
        },
        {
          "name": "Zillingtal",
          "lat": 47.81442,
          "lon": 16.40928
        },
        {
          "name": "Zurndorf",
          "lat": 47.98314,
          "lon": 17.00315
        }
      ]
    },
    {
      "name": "Carinthia",
      "stateCode": "2",
      "lat": 46.722203,
      "lon": 14.1805882,
      "cities": [
        {
          "name": "Albeck",
          "lat": 46.81666667,
          "lon": 14.1
        },
        {
          "name": "Althofen",
          "lat": 46.87298,
          "lon": 14.47449
        },
        {
          "name": "Annabichl",
          "lat": 46.65,
          "lon": 14.31667
        },
        {
          "name": "Arnoldstein",
          "lat": 46.54611,
          "lon": 13.71
        },
        {
          "name": "Arriach",
          "lat": 46.72921,
          "lon": 13.85046
        },
        {
          "name": "Auen",
          "lat": 46.59963,
          "lon": 13.84389
        },
        {
          "name": "Bad Bleiberg",
          "lat": 46.62416667,
          "lon": 13.68777778
        },
        {
          "name": "Bad Eisenkappel",
          "lat": 46.48333333,
          "lon": 14.6
        },
        {
          "name": "Bad Kleinkirchheim",
          "lat": 46.81361111,
          "lon": 13.79277778
        },
        {
          "name": "Bad Sankt Leonhard im Lavanttal",
          "lat": 46.96278,
          "lon": 14.79167
        },
        {
          "name": "Baldramsdorf",
          "lat": 46.80111,
          "lon": 13.45333
        },
        {
          "name": "Berg im Drautal",
          "lat": 46.74915,
          "lon": 13.13536
        },
        {
          "name": "Bleiburg",
          "lat": 46.59,
          "lon": 14.79889
        },
        {
          "name": "Bodensdorf",
          "lat": 46.69111,
          "lon": 13.97111
        },
        {
          "name": "Brückl",
          "lat": 46.75167,
          "lon": 14.53667
        },
        {
          "name": "Dellach",
          "lat": 46.66175,
          "lon": 13.07965
        },
        {
          "name": "Dellach im Drautal",
          "lat": 46.7375,
          "lon": 13.07833
        },
        {
          "name": "Deutsch Griffen",
          "lat": 46.85606,
          "lon": 14.07501
        },
        {
          "name": "Deutsch-Griffen",
          "lat": 46.855,
          "lon": 14.07388889
        },
        {
          "name": "Diex",
          "lat": 46.75,
          "lon": 14.6
        },
        {
          "name": "Döbriach",
          "lat": 46.78049,
          "lon": 13.65738
        },
        {
          "name": "Draschen",
          "lat": 46.76909,
          "lon": 14.06758
        },
        {
          "name": "Ebenthal",
          "lat": 46.60806,
          "lon": 14.36417
        },
        {
          "name": "Eberndorf",
          "lat": 46.59139,
          "lon": 14.64361
        },
        {
          "name": "Eberstein",
          "lat": 46.80806,
          "lon": 14.56
        },
        {
          "name": "Ebriach",
          "lat": 46.46667,
          "lon": 14.51667
        },
        {
          "name": "Eisenkappel-Vellach",
          "lat": 46.48638889,
          "lon": 14.59611111
        },
        {
          "name": "Faak am See",
          "lat": 46.56806,
          "lon": 13.90972
        },
        {
          "name": "Feffernitz",
          "lat": 46.68333333,
          "lon": 13.7
        },
        {
          "name": "Feistritz an der Drau",
          "lat": 46.70157,
          "lon": 13.66479
        },
        {
          "name": "Feistritz an der Gail",
          "lat": 46.5775,
          "lon": 13.60667
        },
        {
          "name": "Feistritz im Rosental",
          "lat": 46.51667,
          "lon": 14.16667
        },
        {
          "name": "Feistritz ob Bleiburg",
          "lat": 46.55,
          "lon": 14.76667
        },
        {
          "name": "Feld am See",
          "lat": 46.77639,
          "lon": 13.74778
        },
        {
          "name": "Feldkirchen District",
          "lat": 46.72127,
          "lon": 14.09683
        },
        {
          "name": "Feldkirchen in Kärnten",
          "lat": 46.72368,
          "lon": 14.0958
        },
        {
          "name": "Ferlach",
          "lat": 46.52694,
          "lon": 14.30194
        },
        {
          "name": "Ferndorf",
          "lat": 46.73651,
          "lon": 13.62661
        },
        {
          "name": "Finkenstein",
          "lat": 46.56155,
          "lon": 13.87086
        },
        {
          "name": "Finkenstein am Faaker See",
          "lat": 46.57904,
          "lon": 13.93496
        },
        {
          "name": "Flattach",
          "lat": 46.93861,
          "lon": 13.13444
        },
        {
          "name": "Föderlach I",
          "lat": 46.59998,
          "lon": 13.96128
        },
        {
          "name": "Frantschach-Sankt Gertraud",
          "lat": 46.86111111,
          "lon": 14.86027778
        },
        {
          "name": "Frauenstein",
          "lat": 46.81417,
          "lon": 14.29417
        },
        {
          "name": "Fresach",
          "lat": 46.71556,
          "lon": 13.69083
        },
        {
          "name": "Fresen",
          "lat": 46.70516,
          "lon": 14.04513
        },
        {
          "name": "Friesach",
          "lat": 46.95528,
          "lon": 14.40583
        },
        {
          "name": "Fürnitz",
          "lat": 46.56188,
          "lon": 13.81732
        },
        {
          "name": "Gailitz",
          "lat": 46.56083,
          "lon": 13.70444
        },
        {
          "name": "Gallizien",
          "lat": 46.55,
          "lon": 14.51667
        },
        {
          "name": "Gemmersdorf",
          "lat": 46.7574,
          "lon": 14.9022
        },
        {
          "name": "Gerlamoos",
          "lat": 46.76391,
          "lon": 13.272
        },
        {
          "name": "Gitschtal",
          "lat": 46.67972222,
          "lon": 13.26055556
        },
        {
          "name": "Glanegg",
          "lat": 46.72259,
          "lon": 14.19893
        },
        {
          "name": "Globasnitz",
          "lat": 46.55694,
          "lon": 14.70278
        },
        {
          "name": "Glödnitz",
          "lat": 46.87398,
          "lon": 14.11915
        },
        {
          "name": "Gmünd",
          "lat": 46.90722,
          "lon": 13.52944
        },
        {
          "name": "Gmünd in Kärnten",
          "lat": 46.91472,
          "lon": 13.5467
        },
        {
          "name": "Gnesau",
          "lat": 46.77544,
          "lon": 13.96251
        },
        {
          "name": "Görtschach",
          "lat": 46.61278,
          "lon": 13.465
        },
        {
          "name": "Grafenstein",
          "lat": 46.61393,
          "lon": 14.46719
        },
        {
          "name": "Greifenburg",
          "lat": 46.75027,
          "lon": 13.17982
        },
        {
          "name": "Gries",
          "lat": 46.8316,
          "lon": 14.85103
        },
        {
          "name": "Griffen",
          "lat": 46.70444,
          "lon": 14.73278
        },
        {
          "name": "Großkirchheim",
          "lat": 46.9727,
          "lon": 12.89589
        },
        {
          "name": "Gurk",
          "lat": 46.87389,
          "lon": 14.29167
        },
        {
          "name": "Guttaring",
          "lat": 46.88536,
          "lon": 14.51071
        },
        {
          "name": "Heiligenblut",
          "lat": 47.03979,
          "lon": 12.84345
        },
        {
          "name": "Hermagor",
          "lat": 46.62722,
          "lon": 13.36722
        },
        {
          "name": "Hermagor District",
          "lat": 46.63137,
          "lon": 13.13246
        },
        {
          "name": "Hermagor-Pressegger See",
          "lat": 46.62722222,
          "lon": 13.36722222
        },
        {
          "name": "Himmelberg",
          "lat": 46.75667,
          "lon": 14.03056
        },
        {
          "name": "Hohenthurn",
          "lat": 46.55774,
          "lon": 13.66038
        },
        {
          "name": "Hörtendorf",
          "lat": 46.63333,
          "lon": 14.4
        },
        {
          "name": "Hüttenberg",
          "lat": 46.94139,
          "lon": 14.55
        },
        {
          "name": "Irschen",
          "lat": 46.75694,
          "lon": 13.02528
        },
        {
          "name": "Kappel am Krappfeld",
          "lat": 46.83861,
          "lon": 14.48639
        },
        {
          "name": "Keutschach am See",
          "lat": 46.59306,
          "lon": 14.18889
        },
        {
          "name": "Kirchbach",
          "lat": 46.6416,
          "lon": 13.18454
        },
        {
          "name": "Klagenfurt",
          "lat": 46.63873,
          "lon": 14.2973
        },
        {
          "name": "Klagenfurt am Wörthersee",
          "lat": 46.63333,
          "lon": 14.3
        },
        {
          "name": "Klagenfurt-Land District",
          "lat": 46.56722,
          "lon": 14.29295
        },
        {
          "name": "Kleblach-Lind",
          "lat": 46.76722222,
          "lon": 13.35805556
        },
        {
          "name": "Klein Sankt Paul",
          "lat": 46.83611,
          "lon": 14.54139
        },
        {
          "name": "Kleinedling",
          "lat": 46.81417,
          "lon": 14.82778
        },
        {
          "name": "Kötschach",
          "lat": 46.68167,
          "lon": 13.00694
        },
        {
          "name": "Kötschach-Mauthen",
          "lat": 46.66666667,
          "lon": 13
        },
        {
          "name": "Köttmannsdorf",
          "lat": 46.56139,
          "lon": 14.23389
        },
        {
          "name": "Krems",
          "lat": 46.9225,
          "lon": 13.5675
        },
        {
          "name": "Krumpendorf",
          "lat": 46.63333,
          "lon": 14.21667
        },
        {
          "name": "Kühnsdorf",
          "lat": 46.62194,
          "lon": 14.63639
        },
        {
          "name": "Lamnitz",
          "lat": 46.86666667,
          "lon": 12.98333333
        },
        {
          "name": "Landskron",
          "lat": 46.61667,
          "lon": 13.88333
        },
        {
          "name": "Launsdorf",
          "lat": 46.77056,
          "lon": 14.45194
        },
        {
          "name": "Lavamünd",
          "lat": 46.64019,
          "lon": 14.94733
        },
        {
          "name": "Ledenitzen",
          "lat": 46.56639,
          "lon": 13.96139
        },
        {
          "name": "Lendorf",
          "lat": 46.83528,
          "lon": 13.43028
        },
        {
          "name": "Leppen",
          "lat": 46.48333,
          "lon": 14.63333
        },
        {
          "name": "Lesachtal",
          "lat": 46.69388889,
          "lon": 12.81583333
        },
        {
          "name": "Liebenfels",
          "lat": 46.73778,
          "lon": 14.28667
        },
        {
          "name": "Lind",
          "lat": 46.62244,
          "lon": 13.84715
        },
        {
          "name": "Lobersberg",
          "lat": 46.865,
          "lon": 12.91111111
        },
        {
          "name": "Ludmannsdorf",
          "lat": 46.54139,
          "lon": 14.13425
        },
        {
          "name": "Lurnfeld",
          "lat": 46.83333333,
          "lon": 13.36666667
        },
        {
          "name": "Magdalensberg",
          "lat": 46.70111111,
          "lon": 14.43111111
        },
        {
          "name": "Mallnitz",
          "lat": 46.98972222,
          "lon": 13.17
        },
        {
          "name": "Malta",
          "lat": 46.96666667,
          "lon": 13.51666667
        },
        {
          "name": "Maria Rain",
          "lat": 46.55389,
          "lon": 14.29556
        },
        {
          "name": "Maria Saal",
          "lat": 46.68083,
          "lon": 14.34861
        },
        {
          "name": "Maria Wörth",
          "lat": 46.61639,
          "lon": 14.16306
        },
        {
          "name": "Mautbrücken",
          "lat": 46.72037,
          "lon": 14.19399
        },
        {
          "name": "Metnitz",
          "lat": 46.98056,
          "lon": 14.21667
        },
        {
          "name": "Micheldorf",
          "lat": 46.91667,
          "lon": 14.41667
        },
        {
          "name": "Millstatt",
          "lat": 46.80417,
          "lon": 13.58056
        },
        {
          "name": "Mölbling",
          "lat": 46.85,
          "lon": 14.43333
        },
        {
          "name": "Möllbrücke",
          "lat": 46.83639,
          "lon": 13.37278
        },
        {
          "name": "Moosburg",
          "lat": 46.6575,
          "lon": 14.17472
        },
        {
          "name": "Mörtschach",
          "lat": 46.92389,
          "lon": 12.91778
        },
        {
          "name": "Mühldorf",
          "lat": 46.86028,
          "lon": 13.35361
        },
        {
          "name": "Neu-Feffernitz",
          "lat": 46.68772,
          "lon": 13.67914
        },
        {
          "name": "Neuhaus",
          "lat": 46.63333,
          "lon": 14.88333
        },
        {
          "name": "Niederdorf",
          "lat": 46.61667,
          "lon": 14.4
        },
        {
          "name": "Nötsch im Gailtal",
          "lat": 46.59,
          "lon": 13.62277778
        },
        {
          "name": "Oberdörfl",
          "lat": 46.55528,
          "lon": 14.10806
        },
        {
          "name": "Oberdrauburg",
          "lat": 46.74306,
          "lon": 12.97028
        },
        {
          "name": "Obermillstatt",
          "lat": 46.8106,
          "lon": 13.5908
        },
        {
          "name": "Obervellach",
          "lat": 46.93667,
          "lon": 13.20417
        },
        {
          "name": "Ossiach",
          "lat": 46.67435,
          "lon": 13.98358
        },
        {
          "name": "Paternion",
          "lat": 46.71417,
          "lon": 13.63611
        },
        {
          "name": "Pischeldorf",
          "lat": 46.68333,
          "lon": 14.45
        },
        {
          "name": "Pöckau",
          "lat": 46.55,
          "lon": 13.7333
        },
        {
          "name": "Poggersdorf",
          "lat": 46.65,
          "lon": 14.45
        },
        {
          "name": "Pörtschach am Wörthersee",
          "lat": 46.63639,
          "lon": 14.14639
        },
        {
          "name": "Preitenegg",
          "lat": 46.94,
          "lon": 14.92583
        },
        {
          "name": "Priel",
          "lat": 46.82758,
          "lon": 14.8333
        },
        {
          "name": "Pusarnitz",
          "lat": 46.83333,
          "lon": 13.4
        },
        {
          "name": "Radenthein",
          "lat": 46.80056,
          "lon": 13.71167
        },
        {
          "name": "Rain",
          "lat": 46.60528,
          "lon": 14.38611
        },
        {
          "name": "Rangersdorf",
          "lat": 46.86001,
          "lon": 12.94923
        },
        {
          "name": "Reding",
          "lat": 46.81667,
          "lon": 14.85
        },
        {
          "name": "Reichenau",
          "lat": 46.85416667,
          "lon": 13.89305556
        },
        {
          "name": "Reichenfels",
          "lat": 47.00718,
          "lon": 14.74425
        },
        {
          "name": "Reißeck",
          "lat": 46.87694444,
          "lon": 13.30555556
        },
        {
          "name": "Rennweg am Katschberg",
          "lat": 47.01667,
          "lon": 13.61667
        },
        {
          "name": "Rittersdorf",
          "lat": 46.75111,
          "lon": 13.03444
        },
        {
          "name": "Rosegg",
          "lat": 46.58833,
          "lon": 14.01718
        },
        {
          "name": "Ruden",
          "lat": 46.65833,
          "lon": 14.77639
        },
        {
          "name": "Sachsenburg",
          "lat": 46.82917,
          "lon": 13.355
        },
        {
          "name": "Sankt Andrä",
          "lat": 46.76829,
          "lon": 14.81991
        },
        {
          "name": "Sankt Egyden an der Drau",
          "lat": 46.57722,
          "lon": 14.06167
        },
        {
          "name": "Sankt Georgen am Längsee",
          "lat": 46.78061,
          "lon": 14.43033
        },
        {
          "name": "Sankt Georgen im Lavanttal",
          "lat": 46.71666667,
          "lon": 14.91666667
        },
        {
          "name": "Sankt Jakob",
          "lat": 46.54777778,
          "lon": 14.05722222
        },
        {
          "name": "Sankt Jakob im Rosental",
          "lat": 46.54777778,
          "lon": 14.05722222
        },
        {
          "name": "Sankt Kanzian am Klopeiner See",
          "lat": 46.61444444,
          "lon": 14.57583333
        },
        {
          "name": "Sankt Leonhard",
          "lat": 46.62528,
          "lon": 13.85865
        },
        {
          "name": "Sankt Magdalen",
          "lat": 46.61667,
          "lon": 13.88333
        },
        {
          "name": "Sankt Margareten im Rosental",
          "lat": 46.54417,
          "lon": 14.42444
        },
        {
          "name": "Sankt Martin",
          "lat": 46.61667,
          "lon": 14.28333
        },
        {
          "name": "Sankt Paul im Lavanttal",
          "lat": 46.70056,
          "lon": 14.87556
        },
        {
          "name": "Sankt Peter",
          "lat": 46.62978,
          "lon": 14.34016
        },
        {
          "name": "Sankt Ruprecht",
          "lat": 46.6,
          "lon": 14.31667
        },
        {
          "name": "Sankt Stefan",
          "lat": 46.8075,
          "lon": 14.85167
        },
        {
          "name": "Sankt Stefan im Gailtal",
          "lat": 46.61666667,
          "lon": 13.51666667
        },
        {
          "name": "Sankt Urban",
          "lat": 46.75027778,
          "lon": 14.16916667
        },
        {
          "name": "Sankt Veit an der Glan",
          "lat": 46.76806,
          "lon": 14.36028
        },
        {
          "name": "Sankt Veit an der Glan District",
          "lat": 46.83333,
          "lon": 14.4
        },
        {
          "name": "Schiefling am See",
          "lat": 46.60444,
          "lon": 14.0975
        },
        {
          "name": "Schleben",
          "lat": 46.62039,
          "lon": 13.93301
        },
        {
          "name": "Seebach",
          "lat": 46.61667,
          "lon": 13.86667
        },
        {
          "name": "Seeboden",
          "lat": 46.81909,
          "lon": 13.5143
        },
        {
          "name": "Seitenberg",
          "lat": 46.74801,
          "lon": 14.08825
        },
        {
          "name": "Sirnitz",
          "lat": 46.82361,
          "lon": 14.05944
        },
        {
          "name": "Sittersdorf",
          "lat": 46.54444,
          "lon": 14.60583
        },
        {
          "name": "Spittal an der Drau",
          "lat": 46.8,
          "lon": 13.5
        },
        {
          "name": "Spittal an der Drau District",
          "lat": 46.85,
          "lon": 13.33333
        },
        {
          "name": "St. Agathen und Perau",
          "lat": 46.60627,
          "lon": 13.85615
        },
        {
          "name": "St. Andrä",
          "lat": 46.76473,
          "lon": 14.82442
        },
        {
          "name": "St. Margareten im Rosental",
          "lat": 46.52498,
          "lon": 14.416
        },
        {
          "name": "St. Paul im Lavanttal",
          "lat": 46.69869,
          "lon": 14.84877
        },
        {
          "name": "St. Stefan im Gailtal",
          "lat": 46.60796,
          "lon": 13.50973
        },
        {
          "name": "St. Urban",
          "lat": 46.76128,
          "lon": 14.16658
        },
        {
          "name": "St. Veit an der Glan",
          "lat": 46.73536,
          "lon": 14.35404
        },
        {
          "name": "St. Veiter Vorstadt",
          "lat": 46.6317,
          "lon": 14.30579
        },
        {
          "name": "Stall",
          "lat": 46.89056,
          "lon": 13.03694
        },
        {
          "name": "Steindorf am Ossiacher See",
          "lat": 46.69833,
          "lon": 14.00917
        },
        {
          "name": "Steinfeld",
          "lat": 46.75812,
          "lon": 13.24934
        },
        {
          "name": "Steuerberg",
          "lat": 46.78804,
          "lon": 14.1129
        },
        {
          "name": "Stockenboi",
          "lat": 46.72611,
          "lon": 13.52306
        },
        {
          "name": "Straßburg",
          "lat": 46.89555556,
          "lon": 14.33083333
        },
        {
          "name": "Straßburg-Stadt",
          "lat": 46.89444,
          "lon": 14.32861
        },
        {
          "name": "Suetschach",
          "lat": 46.52694444,
          "lon": 14.15638889
        },
        {
          "name": "Techelsberg",
          "lat": 46.65861111,
          "lon": 14.10194444
        },
        {
          "name": "Timenitz",
          "lat": 46.68333,
          "lon": 14.41667
        },
        {
          "name": "Trebesing",
          "lat": 46.88639,
          "lon": 13.51028
        },
        {
          "name": "Treffen",
          "lat": 46.66833333,
          "lon": 13.85555556
        },
        {
          "name": "Treibach",
          "lat": 46.86667,
          "lon": 14.46667
        },
        {
          "name": "Tschachoritsch",
          "lat": 46.55352,
          "lon": 14.21461
        },
        {
          "name": "Umberg",
          "lat": 46.64833,
          "lon": 13.9575
        },
        {
          "name": "Untere Fellach",
          "lat": 46.62504,
          "lon": 13.82681
        },
        {
          "name": "Velden am Wörther See",
          "lat": 46.6125,
          "lon": 14.04194444
        },
        {
          "name": "Velden am Wörthersee",
          "lat": 46.61301,
          "lon": 14.0413
        },
        {
          "name": "Viktring",
          "lat": 46.59194,
          "lon": 14.26917
        },
        {
          "name": "Viktringer Vorstadt",
          "lat": 46.61773,
          "lon": 14.30931
        },
        {
          "name": "Villach",
          "lat": 46.61028,
          "lon": 13.85583
        },
        {
          "name": "Villach-Innere Stadt",
          "lat": 46.61275,
          "lon": 13.84638
        },
        {
          "name": "Villach-Land District",
          "lat": 46.65308,
          "lon": 13.77287
        },
        {
          "name": "Villacher Vorstadt",
          "lat": 46.62368,
          "lon": 14.28892
        },
        {
          "name": "Völkendorf",
          "lat": 46.60806,
          "lon": 13.83153
        },
        {
          "name": "Völkermarkt",
          "lat": 46.66222,
          "lon": 14.63444
        },
        {
          "name": "Völkermarkt District",
          "lat": 46.59641,
          "lon": 14.66664
        },
        {
          "name": "Völkermarkter Vorstadt",
          "lat": 46.62418,
          "lon": 14.32081
        },
        {
          "name": "Waiern",
          "lat": 46.73028,
          "lon": 14.08194
        },
        {
          "name": "Warmbad-Judendorf",
          "lat": 46.60126,
          "lon": 13.82241
        },
        {
          "name": "Weißensee",
          "lat": 46.71666667,
          "lon": 13.3
        },
        {
          "name": "Weißenstein",
          "lat": 46.68222222,
          "lon": 13.72361111
        },
        {
          "name": "Weitensfeld",
          "lat": 46.84743,
          "lon": 14.19213
        },
        {
          "name": "Weitensfeld im Gurktal",
          "lat": 46.84861111,
          "lon": 14.19166667
        },
        {
          "name": "Wernberg",
          "lat": 46.61667,
          "lon": 13.93333
        },
        {
          "name": "Winklern",
          "lat": 46.87361,
          "lon": 12.87472
        },
        {
          "name": "Wölfnitz",
          "lat": 46.66639,
          "lon": 14.25806
        },
        {
          "name": "Wolfsberg",
          "lat": 46.84056,
          "lon": 14.84417
        },
        {
          "name": "Wolfsberg District",
          "lat": 46.83333,
          "lon": 14.83333
        },
        {
          "name": "Wudmath",
          "lat": 46.59634,
          "lon": 13.98067
        },
        {
          "name": "Zell",
          "lat": 46.47222222,
          "lon": 14.38888889
        }
      ]
    },
    {
      "name": "Lower Austria",
      "stateCode": "3",
      "lat": 48.108077,
      "lon": 15.8049558,
      "cities": [
        {
          "name": "Absdorf",
          "lat": 48.40021,
          "lon": 15.97874
        },
        {
          "name": "Achau",
          "lat": 48.08026,
          "lon": 16.38611
        },
        {
          "name": "Aderklaa",
          "lat": 48.28333,
          "lon": 16.53333
        },
        {
          "name": "Aggsbach",
          "lat": 48.29404,
          "lon": 15.40382
        },
        {
          "name": "Alland",
          "lat": 48.05829,
          "lon": 16.07901
        },
        {
          "name": "Allentsteig",
          "lat": 48.69725,
          "lon": 15.32756
        },
        {
          "name": "Allhartsberg",
          "lat": 48.02633,
          "lon": 14.79009
        },
        {
          "name": "Altenburg",
          "lat": 48.64765,
          "lon": 15.59295
        },
        {
          "name": "Altendorf",
          "lat": 47.65,
          "lon": 16.01667
        },
        {
          "name": "Altenmarkt an der Triesting",
          "lat": 48.01553,
          "lon": 15.99661
        },
        {
          "name": "Altlengbach",
          "lat": 48.15355,
          "lon": 15.92606
        },
        {
          "name": "Altlichtenwarth",
          "lat": 48.64442,
          "lon": 16.79664
        },
        {
          "name": "Altmelon",
          "lat": 48.46222,
          "lon": 14.96552
        },
        {
          "name": "Amstetten",
          "lat": 48.1229,
          "lon": 14.87206
        },
        {
          "name": "Andlersdorf",
          "lat": 48.18333,
          "lon": 16.66667
        },
        {
          "name": "Angern an der March",
          "lat": 48.37778,
          "lon": 16.82806
        },
        {
          "name": "Arbesbach",
          "lat": 48.49337,
          "lon": 14.95308
        },
        {
          "name": "Ardagger Stift",
          "lat": 48.15,
          "lon": 14.83333
        },
        {
          "name": "Aschbach Markt",
          "lat": 48.07234,
          "lon": 14.75395
        },
        {
          "name": "Aspang Markt",
          "lat": 47.55,
          "lon": 16.08333
        },
        {
          "name": "Asparn an der Zaya",
          "lat": 48.58333,
          "lon": 16.5
        },
        {
          "name": "Asperhofen",
          "lat": 48.24583,
          "lon": 15.92606
        },
        {
          "name": "Atzenbrugg",
          "lat": 48.29119,
          "lon": 15.90614
        },
        {
          "name": "Au am Leithaberge",
          "lat": 47.92296,
          "lon": 16.55794
        },
        {
          "name": "Auersthal",
          "lat": 48.37373,
          "lon": 16.63596
        },
        {
          "name": "Bad Deutsch-Altenburg",
          "lat": 48.13425,
          "lon": 16.90624
        },
        {
          "name": "Bad Erlach",
          "lat": 47.72722,
          "lon": 16.21444
        },
        {
          "name": "Bad Fischau",
          "lat": 47.83137,
          "lon": 16.16707
        },
        {
          "name": "Bad Pirawarth",
          "lat": 48.45194,
          "lon": 16.59833
        },
        {
          "name": "Bad Schönau",
          "lat": 47.49473,
          "lon": 16.2341
        },
        {
          "name": "Bad Traunstein",
          "lat": 48.4385,
          "lon": 15.11712
        },
        {
          "name": "Bad Vöslau",
          "lat": 47.96533,
          "lon": 16.21359
        },
        {
          "name": "Baden",
          "lat": 48.00543,
          "lon": 16.23264
        },
        {
          "name": "Bärnkopf",
          "lat": 48.39046,
          "lon": 15.00479
        },
        {
          "name": "Behamberg",
          "lat": 48.01667,
          "lon": 14.48333
        },
        {
          "name": "Berg",
          "lat": 48.10147,
          "lon": 17.03842
        },
        {
          "name": "Bergland",
          "lat": 48.15595,
          "lon": 15.18553
        },
        {
          "name": "Berndorf",
          "lat": 47.94567,
          "lon": 16.10973
        },
        {
          "name": "Bernhardsthal",
          "lat": 48.69158,
          "lon": 16.86951
        },
        {
          "name": "Biberbach",
          "lat": 48.03006,
          "lon": 14.70795
        },
        {
          "name": "Biedermannsdorf",
          "lat": 48.08393,
          "lon": 16.34542
        },
        {
          "name": "Bisamberg",
          "lat": 48.33333,
          "lon": 16.35
        },
        {
          "name": "Bischofstetten",
          "lat": 48.12222,
          "lon": 15.46909
        },
        {
          "name": "Blindenmarkt",
          "lat": 48.12749,
          "lon": 14.98647
        },
        {
          "name": "Bockfließ",
          "lat": 48.36,
          "lon": 16.60389
        },
        {
          "name": "Böheimkirchen",
          "lat": 48.19779,
          "lon": 15.76178
        },
        {
          "name": "Breitenau",
          "lat": 47.73355,
          "lon": 16.14338
        },
        {
          "name": "Breitenfurt bei Wien",
          "lat": 48.13333,
          "lon": 16.15
        },
        {
          "name": "Bromberg",
          "lat": 47.66539,
          "lon": 16.2099
        },
        {
          "name": "Bruck an der Leitha",
          "lat": 48.01667,
          "lon": 16.76667
        },
        {
          "name": "Brunn am Gebirge",
          "lat": 48.10697,
          "lon": 16.28466
        },
        {
          "name": "Brunn an der Schneebergbahn",
          "lat": 47.82376,
          "lon": 16.15934
        },
        {
          "name": "Brunn an der Wild",
          "lat": 48.69425,
          "lon": 15.52008
        },
        {
          "name": "Buchbach",
          "lat": 47.69648,
          "lon": 15.98425
        },
        {
          "name": "Deutsch-Wagram",
          "lat": 48.29972,
          "lon": 16.56667
        },
        {
          "name": "Dobersberg",
          "lat": 48.9151,
          "lon": 15.32188
        },
        {
          "name": "Dorfstetten",
          "lat": 48.32573,
          "lon": 14.98218
        },
        {
          "name": "Drasenhofen",
          "lat": 48.75,
          "lon": 16.65
        },
        {
          "name": "Drösing",
          "lat": 48.539,
          "lon": 16.90264
        },
        {
          "name": "Droß",
          "lat": 48.46393,
          "lon": 15.57561
        },
        {
          "name": "Dürnkrut",
          "lat": 48.47315,
          "lon": 16.85062
        },
        {
          "name": "Dürnstein",
          "lat": 48.39582,
          "lon": 15.51973
        },
        {
          "name": "Ebenfurth",
          "lat": 47.87738,
          "lon": 16.36731
        },
        {
          "name": "Ebenthal",
          "lat": 48.43333,
          "lon": 16.78333
        },
        {
          "name": "Ebergassing",
          "lat": 48.04567,
          "lon": 16.51709
        },
        {
          "name": "Ebreichsdorf",
          "lat": 47.95579,
          "lon": 16.40705
        },
        {
          "name": "Echsenbach",
          "lat": 48.71667,
          "lon": 15.21667
        },
        {
          "name": "Eckartsau",
          "lat": 48.14507,
          "lon": 16.79737
        },
        {
          "name": "Edlitz",
          "lat": 47.59797,
          "lon": 16.14052
        },
        {
          "name": "Eggenburg",
          "lat": 48.63892,
          "lon": 15.81903
        },
        {
          "name": "Eggendorf",
          "lat": 47.85809,
          "lon": 16.32182
        },
        {
          "name": "Eggern",
          "lat": 48.90829,
          "lon": 15.14877
        },
        {
          "name": "Eichgraben",
          "lat": 48.17204,
          "lon": 15.98391
        },
        {
          "name": "Eisgarn",
          "lat": 48.91675,
          "lon": 15.1032
        },
        {
          "name": "Emmersdorf an der Donau",
          "lat": 48.2414,
          "lon": 15.33721
        },
        {
          "name": "Engelhartstetten",
          "lat": 48.1816,
          "lon": 16.88367
        },
        {
          "name": "Ennsdorf",
          "lat": 48.21181,
          "lon": 14.5029
        },
        {
          "name": "Enzenreith",
          "lat": 47.66839,
          "lon": 15.95249
        },
        {
          "name": "Enzersdorf an der Fischa",
          "lat": 48.08502,
          "lon": 16.60832
        },
        {
          "name": "Enzersfeld",
          "lat": 48.36338,
          "lon": 16.42387
        },
        {
          "name": "Erlauf",
          "lat": 48.18333,
          "lon": 15.18333
        },
        {
          "name": "Ernstbrunn",
          "lat": 48.53333,
          "lon": 16.35
        },
        {
          "name": "Ernsthofen",
          "lat": 48.12915,
          "lon": 14.48058
        },
        {
          "name": "Erpersdorf",
          "lat": 48.3421,
          "lon": 15.91747
        },
        {
          "name": "Ertl",
          "lat": 47.97704,
          "lon": 14.63134
        },
        {
          "name": "Eschenau",
          "lat": 48.04825,
          "lon": 15.56694
        },
        {
          "name": "Euratsfeld",
          "lat": 48.08181,
          "lon": 14.93154
        },
        {
          "name": "Falkenstein",
          "lat": 48.71667,
          "lon": 16.58333
        },
        {
          "name": "Fallbach",
          "lat": 48.65,
          "lon": 16.41667
        },
        {
          "name": "Feistritz am Wechsel",
          "lat": 47.6,
          "lon": 16.05
        },
        {
          "name": "Felixdorf",
          "lat": 47.88159,
          "lon": 16.24208
        },
        {
          "name": "Fels am Wagram",
          "lat": 48.43333,
          "lon": 15.81667
        },
        {
          "name": "Ferschnitz",
          "lat": 48.09419,
          "lon": 14.98454
        },
        {
          "name": "Fischamend-Markt",
          "lat": 48.11667,
          "lon": 16.6
        },
        {
          "name": "Frankenfels",
          "lat": 47.98234,
          "lon": 15.32593
        },
        {
          "name": "Frohsdorf",
          "lat": 47.73333,
          "lon": 16.25
        },
        {
          "name": "Furth an der Triesting",
          "lat": 47.97326,
          "lon": 15.97326
        },
        {
          "name": "Furth bei Göttweig",
          "lat": 48.37385,
          "lon": 15.61408
        },
        {
          "name": "Gaaden",
          "lat": 48.05364,
          "lon": 16.20003
        },
        {
          "name": "Gablitz",
          "lat": 48.22856,
          "lon": 16.15437
        },
        {
          "name": "Gainfarn",
          "lat": 47.9628,
          "lon": 16.19368
        },
        {
          "name": "Gaming",
          "lat": 47.929,
          "lon": 15.08818
        },
        {
          "name": "Gänserndorf",
          "lat": 48.33925,
          "lon": 16.72016
        },
        {
          "name": "Gars am Kamp",
          "lat": 48.58899,
          "lon": 15.65363
        },
        {
          "name": "Gastern",
          "lat": 48.89446,
          "lon": 15.22027
        },
        {
          "name": "Gaubitsch",
          "lat": 48.65,
          "lon": 16.38333
        },
        {
          "name": "Gaweinstal",
          "lat": 48.48003,
          "lon": 16.5879
        },
        {
          "name": "Gedersdorf",
          "lat": 48.43319,
          "lon": 15.68865
        },
        {
          "name": "Geras",
          "lat": 48.79725,
          "lon": 15.67268
        },
        {
          "name": "Gerasdorf bei Wien",
          "lat": 48.29447,
          "lon": 16.46765
        },
        {
          "name": "Gerersdorf",
          "lat": 48.20088,
          "lon": 15.55613
        },
        {
          "name": "Gerolding",
          "lat": 48.25,
          "lon": 15.41667
        },
        {
          "name": "Gföhl",
          "lat": 48.51667,
          "lon": 15.48333
        },
        {
          "name": "Gießhübl",
          "lat": 48.0978,
          "lon": 16.23479
        },
        {
          "name": "Glinzendorf",
          "lat": 48.24605,
          "lon": 16.6406
        },
        {
          "name": "Gloggnitz",
          "lat": 47.67487,
          "lon": 15.93893
        },
        {
          "name": "Gmünd",
          "lat": 48.7683,
          "lon": 14.9808
        },
        {
          "name": "Gnadendorf",
          "lat": 48.61667,
          "lon": 16.4
        },
        {
          "name": "Gneixendorf",
          "lat": 48.43751,
          "lon": 15.6181
        },
        {
          "name": "Göllersdorf",
          "lat": 48.49357,
          "lon": 16.11943
        },
        {
          "name": "Göpfritz an der Wild",
          "lat": 48.72497,
          "lon": 15.40236
        },
        {
          "name": "Göstling an der Ybbs",
          "lat": 47.80664,
          "lon": 14.93797
        },
        {
          "name": "Götzendorf an der Leitha",
          "lat": 48.01667,
          "lon": 16.58333
        },
        {
          "name": "Grafenegg",
          "lat": 48.4304,
          "lon": 15.74907
        },
        {
          "name": "Grafenschlag",
          "lat": 48.5,
          "lon": 15.16667
        },
        {
          "name": "Grafenwörth",
          "lat": 48.4079,
          "lon": 15.77826
        },
        {
          "name": "Gramatneusiedl",
          "lat": 48.0304,
          "lon": 16.48936
        },
        {
          "name": "Greinsfurth",
          "lat": 48.10846,
          "lon": 14.8439
        },
        {
          "name": "Gresten",
          "lat": 47.98521,
          "lon": 15.02552
        },
        {
          "name": "Grimmenstein",
          "lat": 47.61635,
          "lon": 16.12724
        },
        {
          "name": "Groß-Engersdorf",
          "lat": 48.35873,
          "lon": 16.5661
        },
        {
          "name": "Groß-Enzersdorf",
          "lat": 48.20278,
          "lon": 16.55083
        },
        {
          "name": "Groß-Gerungs",
          "lat": 48.57422,
          "lon": 14.95789
        },
        {
          "name": "Groß-Schweinbarth",
          "lat": 48.41472,
          "lon": 16.63194
        },
        {
          "name": "Groß-Siegharts",
          "lat": 48.7918,
          "lon": 15.40429
        },
        {
          "name": "Großebersdorf",
          "lat": 48.36405,
          "lon": 16.47076
        },
        {
          "name": "Großharras",
          "lat": 48.66389,
          "lon": 16.24556
        },
        {
          "name": "Großhofen",
          "lat": 48.25834,
          "lon": 16.6194
        },
        {
          "name": "Großkrut",
          "lat": 48.64389,
          "lon": 16.72361
        },
        {
          "name": "Großmugl",
          "lat": 48.49917,
          "lon": 16.23056
        },
        {
          "name": "Großriedenthal",
          "lat": 48.48333,
          "lon": 15.86667
        },
        {
          "name": "Großrußbach",
          "lat": 48.47412,
          "lon": 16.41649
        },
        {
          "name": "Großweikersdorf",
          "lat": 48.47123,
          "lon": 15.98251
        },
        {
          "name": "Grünbach am Schneeberg",
          "lat": 47.79747,
          "lon": 15.98785
        },
        {
          "name": "Gugging",
          "lat": 48.31385,
          "lon": 16.24852
        },
        {
          "name": "Gumpoldskirchen",
          "lat": 48.04538,
          "lon": 16.2771
        },
        {
          "name": "Günselsdorf",
          "lat": 47.94395,
          "lon": 16.26062
        },
        {
          "name": "Guntersdorf",
          "lat": 48.65,
          "lon": 16.05
        },
        {
          "name": "Guntramsdorf",
          "lat": 48.04687,
          "lon": 16.31384
        },
        {
          "name": "Gutenbrunn",
          "lat": 48.3652,
          "lon": 15.11899
        },
        {
          "name": "Gutenstein",
          "lat": 47.876,
          "lon": 15.88881
        },
        {
          "name": "Haag",
          "lat": 48.11362,
          "lon": 14.56753
        },
        {
          "name": "Hadersdorf am Kamp",
          "lat": 48.45,
          "lon": 15.71667
        },
        {
          "name": "Hadres",
          "lat": 48.70965,
          "lon": 16.13038
        },
        {
          "name": "Hafnerbach",
          "lat": 48.21667,
          "lon": 15.48333
        },
        {
          "name": "Hagenbrunn",
          "lat": 48.33333,
          "lon": 16.4
        },
        {
          "name": "Haidershofen",
          "lat": 48.07579,
          "lon": 14.46131
        },
        {
          "name": "Hainburg an der Donau",
          "lat": 48.14627,
          "lon": 16.94504
        },
        {
          "name": "Hainfeld",
          "lat": 48.0339,
          "lon": 15.77414
        },
        {
          "name": "Hardegg",
          "lat": 48.85,
          "lon": 15.85
        },
        {
          "name": "Haringsee",
          "lat": 48.1927,
          "lon": 16.78741
        },
        {
          "name": "Harland",
          "lat": 48.16162,
          "lon": 15.63835
        },
        {
          "name": "Harmannsdorf",
          "lat": 48.39724,
          "lon": 16.3722
        },
        {
          "name": "Hart",
          "lat": 48.1532,
          "lon": 15.61569
        },
        {
          "name": "Haugschlag",
          "lat": 48.98333,
          "lon": 15.05
        },
        {
          "name": "Haugsdorf",
          "lat": 48.70762,
          "lon": 16.07656
        },
        {
          "name": "Haunoldstein",
          "lat": 48.2,
          "lon": 15.45
        },
        {
          "name": "Hausbrunn",
          "lat": 48.62602,
          "lon": 16.82844
        },
        {
          "name": "Hauskirchen",
          "lat": 48.6,
          "lon": 16.76667
        },
        {
          "name": "Hausleiten",
          "lat": 48.38333,
          "lon": 16.1
        },
        {
          "name": "Hausmening",
          "lat": 48.07074,
          "lon": 14.81438
        },
        {
          "name": "Heidenreichstein",
          "lat": 48.86667,
          "lon": 15.11667
        },
        {
          "name": "Heiligeneich",
          "lat": 48.29964,
          "lon": 15.89413
        },
        {
          "name": "Heiligenkreuz",
          "lat": 48.05559,
          "lon": 16.12493
        },
        {
          "name": "Hennersdorf",
          "lat": 48.11173,
          "lon": 16.36311
        },
        {
          "name": "Hernstein",
          "lat": 47.89465,
          "lon": 16.10561
        },
        {
          "name": "Herrnbaumgarten",
          "lat": 48.69606,
          "lon": 16.68283
        },
        {
          "name": "Herzogenburg",
          "lat": 48.28137,
          "lon": 15.69431
        },
        {
          "name": "Himberg",
          "lat": 48.08333,
          "lon": 16.43333
        },
        {
          "name": "Hinterbrühl",
          "lat": 48.08611,
          "lon": 16.24809
        },
        {
          "name": "Hinterleiten",
          "lat": 48.16513,
          "lon": 15.96654
        },
        {
          "name": "Hirschbach",
          "lat": 48.74329,
          "lon": 15.12521
        },
        {
          "name": "Hirtenberg",
          "lat": 47.93095,
          "lon": 16.17908
        },
        {
          "name": "Hochleithen",
          "lat": 48.45317,
          "lon": 16.5309
        },
        {
          "name": "Hochwolkersdorf",
          "lat": 47.66127,
          "lon": 16.28072
        },
        {
          "name": "Hof am Leithaberge",
          "lat": 47.95,
          "lon": 16.58333
        },
        {
          "name": "Hofamt Priel",
          "lat": 48.19581,
          "lon": 15.07746
        },
        {
          "name": "Höflein",
          "lat": 48.06667,
          "lon": 16.78333
        },
        {
          "name": "Höfling",
          "lat": 48.05444,
          "lon": 15.03672
        },
        {
          "name": "Hofstetten",
          "lat": 48.09711,
          "lon": 15.51149
        },
        {
          "name": "Hohenau",
          "lat": 48.6042,
          "lon": 16.9047
        },
        {
          "name": "Hohenberg",
          "lat": 47.90679,
          "lon": 15.61998
        },
        {
          "name": "Hoheneich",
          "lat": 48.77195,
          "lon": 15.02857
        },
        {
          "name": "Hohenruppersdorf",
          "lat": 48.46439,
          "lon": 16.65244
        },
        {
          "name": "Hollabrunn",
          "lat": 48.55,
          "lon": 16.08333
        },
        {
          "name": "Hollenstein an der Ybbs",
          "lat": 47.80305,
          "lon": 14.77312
        },
        {
          "name": "Hollenthon",
          "lat": 47.58938,
          "lon": 16.26131
        },
        {
          "name": "Horn",
          "lat": 48.66274,
          "lon": 15.65663
        },
        {
          "name": "Hundsheim",
          "lat": 48.11749,
          "lon": 16.93581
        },
        {
          "name": "Hürm",
          "lat": 48.15601,
          "lon": 15.41262
        },
        {
          "name": "Hutten",
          "lat": 48.17856,
          "lon": 15.98579
        },
        {
          "name": "Jaidhof",
          "lat": 48.53333,
          "lon": 15.48333
        },
        {
          "name": "Japons",
          "lat": 48.7925,
          "lon": 15.56831
        },
        {
          "name": "Jedenspeigen",
          "lat": 48.49807,
          "lon": 16.87225
        },
        {
          "name": "Kaltenleutgeben",
          "lat": 48.11646,
          "lon": 16.19956
        },
        {
          "name": "Kapelln",
          "lat": 48.25817,
          "lon": 15.75731
        },
        {
          "name": "Karlstetten",
          "lat": 48.2592,
          "lon": 15.56544
        },
        {
          "name": "Kasten bei Böheimkirchen",
          "lat": 48.1532,
          "lon": 15.77946
        },
        {
          "name": "Katzelsdorf",
          "lat": 47.78055,
          "lon": 16.26985
        },
        {
          "name": "Kaumberg",
          "lat": 48.02415,
          "lon": 15.89842
        },
        {
          "name": "Kautzen",
          "lat": 48.93,
          "lon": 15.23932
        },
        {
          "name": "Kematen an der Ybbs",
          "lat": 48.02541,
          "lon": 14.76468
        },
        {
          "name": "Kierling",
          "lat": 48.30997,
          "lon": 16.27616
        },
        {
          "name": "Kilb",
          "lat": 48.10101,
          "lon": 15.4085
        },
        {
          "name": "Kirchberg am Wagram",
          "lat": 48.43182,
          "lon": 15.89692
        },
        {
          "name": "Kirchberg am Walde",
          "lat": 48.72477,
          "lon": 15.08826
        },
        {
          "name": "Kirchberg am Wechsel",
          "lat": 47.60738,
          "lon": 15.99103
        },
        {
          "name": "Kirchberg an der Pielach",
          "lat": 48.0269,
          "lon": 15.42875
        },
        {
          "name": "Kirchschlag",
          "lat": 48.39345,
          "lon": 15.22285
        },
        {
          "name": "Kirchschlag in der Buckligen Welt",
          "lat": 47.5,
          "lon": 16.28333
        },
        {
          "name": "Kirchstetten",
          "lat": 48.18333,
          "lon": 15.81667
        },
        {
          "name": "Kirnberg an der Mank",
          "lat": 48.07246,
          "lon": 15.32232
        },
        {
          "name": "Klausen-Leopoldsdorf",
          "lat": 48.08771,
          "lon": 16.01686
        },
        {
          "name": "Klein-Neusiedl",
          "lat": 48.09379,
          "lon": 16.60661
        },
        {
          "name": "Klein-Pöchlarn",
          "lat": 48.21667,
          "lon": 15.21667
        },
        {
          "name": "Kleinzell",
          "lat": 47.97993,
          "lon": 15.7362
        },
        {
          "name": "Klosterneuburg",
          "lat": 48.30521,
          "lon": 16.32522
        },
        {
          "name": "Königstetten",
          "lat": 48.30198,
          "lon": 16.14492
        },
        {
          "name": "Korneuburg",
          "lat": 48.35,
          "lon": 16.33333
        },
        {
          "name": "Kottingbrunn",
          "lat": 47.95096,
          "lon": 16.22715
        },
        {
          "name": "Krems an der Donau",
          "lat": 48.40921,
          "lon": 15.61415
        },
        {
          "name": "Krems an der Donau Stadt",
          "lat": 48.4104,
          "lon": 15.60574
        },
        {
          "name": "Kritzendorf",
          "lat": 48.32932,
          "lon": 16.30011
        },
        {
          "name": "Krumau am Kamp",
          "lat": 48.58879,
          "lon": 15.44914
        },
        {
          "name": "Krumbach Markt",
          "lat": 47.51667,
          "lon": 16.18333
        },
        {
          "name": "Krumnussbaum",
          "lat": 48.20877,
          "lon": 15.16212
        },
        {
          "name": "Laa an der Thaya",
          "lat": 48.71667,
          "lon": 16.38333
        },
        {
          "name": "Laab im Walde",
          "lat": 48.15486,
          "lon": 16.17359
        },
        {
          "name": "Ladendorf",
          "lat": 48.53333,
          "lon": 16.48333
        },
        {
          "name": "Landegg",
          "lat": 47.9,
          "lon": 16.4
        },
        {
          "name": "Langau",
          "lat": 48.83207,
          "lon": 15.7156
        },
        {
          "name": "Langenlebarn-Oberaigen",
          "lat": 48.33023,
          "lon": 16.11059
        },
        {
          "name": "Langenlois",
          "lat": 48.46667,
          "lon": 15.66667
        },
        {
          "name": "Langenrohr",
          "lat": 48.30489,
          "lon": 16.01034
        },
        {
          "name": "Langenzersdorf",
          "lat": 48.30432,
          "lon": 16.36143
        },
        {
          "name": "Langschlag",
          "lat": 48.57448,
          "lon": 14.88459
        },
        {
          "name": "Lanzendorf",
          "lat": 48.11056,
          "lon": 16.445
        },
        {
          "name": "Lanzenkirchen",
          "lat": 47.73621,
          "lon": 16.21985
        },
        {
          "name": "Lassee",
          "lat": 48.22479,
          "lon": 16.8223
        },
        {
          "name": "Laxenburg",
          "lat": 48.06833,
          "lon": 16.35607
        },
        {
          "name": "Leiben",
          "lat": 48.24628,
          "lon": 15.2746
        },
        {
          "name": "Leitzersdorf",
          "lat": 48.41918,
          "lon": 16.24513
        },
        {
          "name": "Lengenfeld",
          "lat": 48.47187,
          "lon": 15.5987
        },
        {
          "name": "Leobendorf",
          "lat": 48.38333,
          "lon": 16.31667
        },
        {
          "name": "Leobersdorf",
          "lat": 47.92796,
          "lon": 16.21651
        },
        {
          "name": "Leopoldsdorf",
          "lat": 48.11557,
          "lon": 16.39126
        },
        {
          "name": "Leopoldsdorf im Marchfelde",
          "lat": 48.22261,
          "lon": 16.68858
        },
        {
          "name": "Lerchenfeld",
          "lat": 48.41234,
          "lon": 15.63183
        },
        {
          "name": "Lichtenegg",
          "lat": 47.6,
          "lon": 16.2
        },
        {
          "name": "Lichtenwörth",
          "lat": 47.82756,
          "lon": 16.29873
        },
        {
          "name": "Lilienfeld",
          "lat": 48.01312,
          "lon": 15.59664
        },
        {
          "name": "Litschau",
          "lat": 48.94409,
          "lon": 15.04483
        },
        {
          "name": "Loich",
          "lat": 47.99578,
          "lon": 15.40163
        },
        {
          "name": "Loosdorf",
          "lat": 48.2,
          "lon": 15.4
        },
        {
          "name": "Lunz am See",
          "lat": 47.8612,
          "lon": 15.02998
        },
        {
          "name": "Mailberg",
          "lat": 48.67379,
          "lon": 16.18132
        },
        {
          "name": "Maissau",
          "lat": 48.573,
          "lon": 15.83005
        },
        {
          "name": "Mank",
          "lat": 48.11024,
          "lon": 15.33915
        },
        {
          "name": "Mannersdorf am Leithagebirge",
          "lat": 47.96667,
          "lon": 16.6
        },
        {
          "name": "Mannsdorf an der Donau",
          "lat": 48.152,
          "lon": 16.66506
        },
        {
          "name": "Mannswörth",
          "lat": 48.14547,
          "lon": 16.51374
        },
        {
          "name": "Marbach an der Donau",
          "lat": 48.21667,
          "lon": 15.15
        },
        {
          "name": "Marchegg",
          "lat": 48.26217,
          "lon": 16.91045
        },
        {
          "name": "Margarethen am Moos",
          "lat": 48.03333,
          "lon": 16.6
        },
        {
          "name": "Maria Ellend",
          "lat": 48.1,
          "lon": 16.68333
        },
        {
          "name": "Maria Enzersdorf",
          "lat": 48.1,
          "lon": 16.28333
        },
        {
          "name": "Maria Laach am Jauerling",
          "lat": 48.30412,
          "lon": 15.34472
        },
        {
          "name": "Maria Lanzendorf",
          "lat": 48.09923,
          "lon": 16.41984
        },
        {
          "name": "Maria Taferl",
          "lat": 48.22702,
          "lon": 15.15954
        },
        {
          "name": "Maria-Anzbach",
          "lat": 48.19012,
          "lon": 15.93155
        },
        {
          "name": "Markersdorf an der Pielach",
          "lat": 48.18333,
          "lon": 15.5
        },
        {
          "name": "Markgrafneusiedl",
          "lat": 48.26667,
          "lon": 16.63333
        },
        {
          "name": "Markt Piesting",
          "lat": 47.87358,
          "lon": 16.1251
        },
        {
          "name": "Martinsberg",
          "lat": 48.37549,
          "lon": 15.14997
        },
        {
          "name": "Matzen",
          "lat": 48.4,
          "lon": 16.7
        },
        {
          "name": "Matzendorf",
          "lat": 47.89137,
          "lon": 16.21393
        },
        {
          "name": "Mauer bei Amstetten",
          "lat": 48.09643,
          "lon": 14.8006
        },
        {
          "name": "Mauerbach",
          "lat": 48.24514,
          "lon": 16.16793
        },
        {
          "name": "Mautern",
          "lat": 48.39319,
          "lon": 15.57793
        },
        {
          "name": "Melk",
          "lat": 48.22737,
          "lon": 15.33186
        },
        {
          "name": "Michelhausen",
          "lat": 48.29085,
          "lon": 15.93893
        },
        {
          "name": "Miesenbach",
          "lat": 47.84035,
          "lon": 15.98236
        },
        {
          "name": "Mistelbach",
          "lat": 48.57,
          "lon": 16.57667
        },
        {
          "name": "Mitterbach am Erlaufsee",
          "lat": 47.81396,
          "lon": 15.29537
        },
        {
          "name": "Mitterndorf an der Fischa",
          "lat": 47.99739,
          "lon": 16.47357
        },
        {
          "name": "Mödling",
          "lat": 48.08605,
          "lon": 16.28921
        },
        {
          "name": "Möllersdorf",
          "lat": 48.02575,
          "lon": 16.30508
        },
        {
          "name": "Mönichkirchen",
          "lat": 47.51062,
          "lon": 16.03425
        },
        {
          "name": "Moosbrunn",
          "lat": 48.01667,
          "lon": 16.45
        },
        {
          "name": "Muckendorf an der Donau",
          "lat": 48.33183,
          "lon": 16.1554
        },
        {
          "name": "Muggendorf",
          "lat": 47.91059,
          "lon": 15.93533
        },
        {
          "name": "Mühldorf",
          "lat": 48.37432,
          "lon": 15.34672
        },
        {
          "name": "Münchendorf",
          "lat": 48.03333,
          "lon": 16.38333
        },
        {
          "name": "Neidling",
          "lat": 48.24005,
          "lon": 15.55591
        },
        {
          "name": "Neu-Guntramsdorf",
          "lat": 48.0642,
          "lon": 16.31573
        },
        {
          "name": "Neudorf bei Staatz",
          "lat": 48.72083,
          "lon": 16.49139
        },
        {
          "name": "Neufurth",
          "lat": 48.07894,
          "lon": 14.8118
        },
        {
          "name": "Neuhofen an der Ybbs",
          "lat": 48.05795,
          "lon": 14.85489
        },
        {
          "name": "Neulengbach",
          "lat": 48.19745,
          "lon": 15.90219
        },
        {
          "name": "Neumarkt an der Ybbs",
          "lat": 48.14103,
          "lon": 15.05758
        },
        {
          "name": "Neunkirchen",
          "lat": 47.72096,
          "lon": 16.08107
        },
        {
          "name": "Neusiedl",
          "lat": 47.88769,
          "lon": 15.96313
        },
        {
          "name": "Neusiedl an der Zaya",
          "lat": 48.5992,
          "lon": 16.7799
        },
        {
          "name": "Niederhollabrunn",
          "lat": 48.43333,
          "lon": 16.3
        },
        {
          "name": "Niederleis",
          "lat": 48.55,
          "lon": 16.4
        },
        {
          "name": "Nöchling",
          "lat": 48.22433,
          "lon": 14.98123
        },
        {
          "name": "Ober-Grafendorf",
          "lat": 48.1504,
          "lon": 15.54531
        },
        {
          "name": "Oberhausen",
          "lat": 48.1769,
          "lon": 16.58506
        },
        {
          "name": "Oberndorf an der Melk",
          "lat": 48.06386,
          "lon": 15.2243
        },
        {
          "name": "Oberndorf in der Ebene",
          "lat": 48.2704,
          "lon": 15.68985
        },
        {
          "name": "Obersdorf",
          "lat": 48.36667,
          "lon": 16.51667
        },
        {
          "name": "Obersiebenbrunn",
          "lat": 48.26537,
          "lon": 16.71076
        },
        {
          "name": "Oberwagram",
          "lat": 48.20157,
          "lon": 15.64917
        },
        {
          "name": "Oberwaltersdorf",
          "lat": 47.97567,
          "lon": 16.32191
        },
        {
          "name": "Oberwölbling",
          "lat": 48.31719,
          "lon": 15.59166
        },
        {
          "name": "Oehling",
          "lat": 48.1,
          "lon": 14.8
        },
        {
          "name": "Oeynhausen",
          "lat": 47.98533,
          "lon": 16.29187
        },
        {
          "name": "Opponitz",
          "lat": 47.87776,
          "lon": 14.82283
        },
        {
          "name": "Orth an der Donau",
          "lat": 48.14524,
          "lon": 16.70089
        },
        {
          "name": "Ottenschlag",
          "lat": 48.42393,
          "lon": 15.21924
        },
        {
          "name": "Ottenthal",
          "lat": 48.761,
          "lon": 16.57914
        },
        {
          "name": "Otterthal",
          "lat": 47.61667,
          "lon": 15.93333
        },
        {
          "name": "Parbasdorf",
          "lat": 48.28333,
          "lon": 16.6
        },
        {
          "name": "Paudorf",
          "lat": 48.35416,
          "lon": 15.61853
        },
        {
          "name": "Payerbach",
          "lat": 47.69209,
          "lon": 15.8634
        },
        {
          "name": "Penz",
          "lat": 48.03333,
          "lon": 14.48333
        },
        {
          "name": "Perchtoldsdorf",
          "lat": 48.11935,
          "lon": 16.26607
        },
        {
          "name": "Pernegg",
          "lat": 48.73333,
          "lon": 15.61667
        },
        {
          "name": "Pernersdorf",
          "lat": 48.7,
          "lon": 16.01667
        },
        {
          "name": "Pernitz",
          "lat": 47.89759,
          "lon": 15.96022
        },
        {
          "name": "Persenbeug",
          "lat": 48.18733,
          "lon": 15.08809
        },
        {
          "name": "Petronell-Carnuntum",
          "lat": 48.11296,
          "lon": 16.86582
        },
        {
          "name": "Petzenkirchen",
          "lat": 48.14693,
          "lon": 15.15465
        },
        {
          "name": "Pfaffstätten",
          "lat": 48.01737,
          "lon": 16.26354
        },
        {
          "name": "Pillichsdorf",
          "lat": 48.35,
          "lon": 16.53333
        },
        {
          "name": "Pitten",
          "lat": 47.71667,
          "lon": 16.18333
        },
        {
          "name": "Pöchlarn",
          "lat": 48.2,
          "lon": 15.2
        },
        {
          "name": "Pöggstall",
          "lat": 48.31734,
          "lon": 15.20405
        },
        {
          "name": "Politischer Bezirk Amstetten",
          "lat": 48,
          "lon": 14.76667
        },
        {
          "name": "Politischer Bezirk Baden",
          "lat": 47.97729,
          "lon": 16.19845
        },
        {
          "name": "Politischer Bezirk Bruck an der Leitha",
          "lat": 48.06781,
          "lon": 16.77284
        },
        {
          "name": "Politischer Bezirk Gänserndorf",
          "lat": 48.3934,
          "lon": 16.73892
        },
        {
          "name": "Politischer Bezirk Gmünd",
          "lat": 48.74732,
          "lon": 14.98166
        },
        {
          "name": "Politischer Bezirk Hollabrunn",
          "lat": 48.65286,
          "lon": 15.99701
        },
        {
          "name": "Politischer Bezirk Horn",
          "lat": 48.71341,
          "lon": 15.68712
        },
        {
          "name": "Politischer Bezirk Korneuburg",
          "lat": 48.44343,
          "lon": 16.2412
        },
        {
          "name": "Politischer Bezirk Krems",
          "lat": 48.46582,
          "lon": 15.52093
        },
        {
          "name": "Politischer Bezirk Lilienfeld",
          "lat": 47.91667,
          "lon": 15.6
        },
        {
          "name": "Politischer Bezirk Melk",
          "lat": 48.21314,
          "lon": 15.24282
        },
        {
          "name": "Politischer Bezirk Mistelbach",
          "lat": 48.59436,
          "lon": 16.5473
        },
        {
          "name": "Politischer Bezirk Mödling",
          "lat": 48.08517,
          "lon": 16.24118
        },
        {
          "name": "Politischer Bezirk Neunkirchen",
          "lat": 47.69424,
          "lon": 15.93783
        },
        {
          "name": "Politischer Bezirk Sankt Pölten",
          "lat": 48.16905,
          "lon": 15.66508
        },
        {
          "name": "Politischer Bezirk Scheibbs",
          "lat": 47.92316,
          "lon": 15.10376
        },
        {
          "name": "Politischer Bezirk Tulln",
          "lat": 48.3,
          "lon": 16
        },
        {
          "name": "Politischer Bezirk Waidhofen an der Thaya",
          "lat": 48.85925,
          "lon": 15.35814
        },
        {
          "name": "Politischer Bezirk Wiener Neustadt",
          "lat": 47.83203,
          "lon": 16.14291
        },
        {
          "name": "Politischer Bezirk Zwettl",
          "lat": 48.57435,
          "lon": 15.17159
        },
        {
          "name": "Pottenbrunn",
          "lat": 48.23333,
          "lon": 15.7
        },
        {
          "name": "Pottendorf",
          "lat": 47.9,
          "lon": 16.38333
        },
        {
          "name": "Pottenstein",
          "lat": 47.9582,
          "lon": 16.0948
        },
        {
          "name": "Pottschach",
          "lat": 47.69856,
          "lon": 16.00725
        },
        {
          "name": "Poysdorf",
          "lat": 48.66667,
          "lon": 16.63333
        },
        {
          "name": "Prellenkirchen",
          "lat": 48.07401,
          "lon": 16.95233
        },
        {
          "name": "Pressbaum",
          "lat": 48.18333,
          "lon": 16.08333
        },
        {
          "name": "Prigglitz",
          "lat": 47.70318,
          "lon": 15.92794
        },
        {
          "name": "Prinzersdorf",
          "lat": 48.2,
          "lon": 15.51667
        },
        {
          "name": "Prottes",
          "lat": 48.3868,
          "lon": 16.7389
        },
        {
          "name": "Puchberg am Schneeberg",
          "lat": 47.78709,
          "lon": 15.91352
        },
        {
          "name": "Puchenstuben",
          "lat": 47.92819,
          "lon": 15.28748
        },
        {
          "name": "Pulkau",
          "lat": 48.70484,
          "lon": 15.86031
        },
        {
          "name": "Purgstall",
          "lat": 48.05841,
          "lon": 15.13478
        },
        {
          "name": "Purkersdorf",
          "lat": 48.20769,
          "lon": 16.17539
        },
        {
          "name": "Pyhra",
          "lat": 48.1591,
          "lon": 15.68624
        },
        {
          "name": "Raabs an der Thaya",
          "lat": 48.85,
          "lon": 15.5
        },
        {
          "name": "Raach am Hochgebirge",
          "lat": 47.63333,
          "lon": 15.93333
        },
        {
          "name": "Raasdorf",
          "lat": 48.24657,
          "lon": 16.56532
        },
        {
          "name": "Rabensburg",
          "lat": 48.65,
          "lon": 16.9
        },
        {
          "name": "Rabenstein an der Pielach",
          "lat": 48.06535,
          "lon": 15.46772
        },
        {
          "name": "Ramsau",
          "lat": 48.00313,
          "lon": 15.80332
        },
        {
          "name": "Randegg",
          "lat": 48.01198,
          "lon": 14.97334
        },
        {
          "name": "Rannersdorf",
          "lat": 48.12772,
          "lon": 16.46379
        },
        {
          "name": "Rappottenstein",
          "lat": 48.52161,
          "lon": 15.07925
        },
        {
          "name": "Rastenfeld",
          "lat": 48.57348,
          "lon": 15.33176
        },
        {
          "name": "Ratzersdorf an der Traisen",
          "lat": 48.22639,
          "lon": 15.66629
        },
        {
          "name": "Rauchenwarth",
          "lat": 48.0833,
          "lon": 16.52794
        },
        {
          "name": "Ravelsbach",
          "lat": 48.55,
          "lon": 15.85
        },
        {
          "name": "Raxendorf",
          "lat": 48.34108,
          "lon": 15.27666
        },
        {
          "name": "Rehberg",
          "lat": 48.43114,
          "lon": 15.58702
        },
        {
          "name": "Reichenau an der Rax",
          "lat": 47.69509,
          "lon": 15.84572
        },
        {
          "name": "Reingers",
          "lat": 48.96667,
          "lon": 15.13333
        },
        {
          "name": "Reinsberg",
          "lat": 47.98567,
          "lon": 15.07067
        },
        {
          "name": "Reisenberg",
          "lat": 47.99406,
          "lon": 16.52018
        },
        {
          "name": "Retz",
          "lat": 48.75712,
          "lon": 15.95485
        },
        {
          "name": "Rohr im Gebirge",
          "lat": 47.89471,
          "lon": 15.73603
        },
        {
          "name": "Rohrau",
          "lat": 48.06667,
          "lon": 16.85
        },
        {
          "name": "Rohrbach an der Gölsen",
          "lat": 48.04699,
          "lon": 15.74169
        },
        {
          "name": "Röhrenbach",
          "lat": 48.65,
          "lon": 15.5
        },
        {
          "name": "Rohrendorf bei Krems",
          "lat": 48.41935,
          "lon": 15.65772
        },
        {
          "name": "Röschitz",
          "lat": 48.64312,
          "lon": 15.81774
        },
        {
          "name": "Rosenau am Sonntagberg",
          "lat": 48.00778,
          "lon": 14.73927
        },
        {
          "name": "Ruprechtshofen",
          "lat": 48.13648,
          "lon": 15.27675
        },
        {
          "name": "Sallingberg",
          "lat": 48.46667,
          "lon": 15.23333
        },
        {
          "name": "Sankt Aegyd am Neuwalde",
          "lat": 47.85383,
          "lon": 15.56969
        },
        {
          "name": "Sankt Andrä vor dem Hagenthale",
          "lat": 48.32202,
          "lon": 16.20724
        },
        {
          "name": "Sankt Corona am Wechsel",
          "lat": 47.58333,
          "lon": 16
        },
        {
          "name": "Sankt Georgen am Ybbsfelde",
          "lat": 48.12892,
          "lon": 14.95364
        },
        {
          "name": "Sankt Georgen an der Leys",
          "lat": 48.03149,
          "lon": 15.22722
        },
        {
          "name": "Sankt Leonhard am Forst",
          "lat": 48.14232,
          "lon": 15.28464
        },
        {
          "name": "Sankt Leonhard am Hornerwald",
          "lat": 48.6,
          "lon": 15.53333
        },
        {
          "name": "Sankt Margarethen an der Sierning",
          "lat": 48.1591,
          "lon": 15.49055
        },
        {
          "name": "Sankt Martin am Ybbsfelde",
          "lat": 48.16425,
          "lon": 15.02076
        },
        {
          "name": "Sankt Pantaleon",
          "lat": 48.21058,
          "lon": 14.56804
        },
        {
          "name": "Sankt Peter in der Au Markt",
          "lat": 48.044,
          "lon": 14.62182
        },
        {
          "name": "Sankt Pölten",
          "lat": 48.2,
          "lon": 15.63333
        },
        {
          "name": "Sankt Pölten Stadt",
          "lat": 48.2,
          "lon": 15.61667
        },
        {
          "name": "Sankt Valentin",
          "lat": 48.16667,
          "lon": 14.51667
        },
        {
          "name": "Sankt Veit an der Gölsen",
          "lat": 48.0432,
          "lon": 15.66942
        },
        {
          "name": "Scharndorf",
          "lat": 48.09399,
          "lon": 16.79883
        },
        {
          "name": "Scheibbs",
          "lat": 48.00474,
          "lon": 15.16817
        },
        {
          "name": "Schleinbach",
          "lat": 48.41667,
          "lon": 16.46667
        },
        {
          "name": "Schönau an der Triesting",
          "lat": 47.93452,
          "lon": 16.25376
        },
        {
          "name": "Schönbach",
          "lat": 48.45,
          "lon": 15.03333
        },
        {
          "name": "Schönkirchen-Reyersdorf",
          "lat": 48.35477,
          "lon": 16.69115
        },
        {
          "name": "Schottwien",
          "lat": 47.65683,
          "lon": 15.8725
        },
        {
          "name": "Schrattenbach",
          "lat": 47.77902,
          "lon": 15.9906
        },
        {
          "name": "Schrattenberg",
          "lat": 48.72359,
          "lon": 16.72201
        },
        {
          "name": "Schrattenthal",
          "lat": 48.7,
          "lon": 15.9
        },
        {
          "name": "Schrems",
          "lat": 48.78333,
          "lon": 15.06667
        },
        {
          "name": "Schwadorf",
          "lat": 48.06936,
          "lon": 16.57957
        },
        {
          "name": "Schwarzau am Steinfeld",
          "lat": 47.73183,
          "lon": 16.17094
        },
        {
          "name": "Schwarzau im Gebirge",
          "lat": 47.81223,
          "lon": 15.70581
        },
        {
          "name": "Schwarzenau",
          "lat": 48.74436,
          "lon": 15.25838
        },
        {
          "name": "Schwarzenbach",
          "lat": 47.63547,
          "lon": 16.35109
        },
        {
          "name": "Schwarzenbach an der Pielach",
          "lat": 47.93333,
          "lon": 15.38333
        },
        {
          "name": "Schwechat",
          "lat": 48.13333,
          "lon": 16.46667
        },
        {
          "name": "Schweiggers",
          "lat": 48.66667,
          "lon": 15.06667
        },
        {
          "name": "Seebenstein",
          "lat": 47.69936,
          "lon": 16.14484
        },
        {
          "name": "Seibersdorf",
          "lat": 47.95858,
          "lon": 16.51842
        },
        {
          "name": "Seitenstetten Markt",
          "lat": 48.03333,
          "lon": 14.65
        },
        {
          "name": "Semmering",
          "lat": 47.63347,
          "lon": 15.82993
        },
        {
          "name": "Senftenberg",
          "lat": 48.43333,
          "lon": 15.55
        },
        {
          "name": "Seyring",
          "lat": 48.33333,
          "lon": 16.48333
        },
        {
          "name": "Sieghartskirchen",
          "lat": 48.25531,
          "lon": 16.01223
        },
        {
          "name": "Sierndorf",
          "lat": 48.43024,
          "lon": 16.16658
        },
        {
          "name": "Sigmundsherberg",
          "lat": 48.68333,
          "lon": 15.75
        },
        {
          "name": "Sitzendorf an der Schmida",
          "lat": 48.59841,
          "lon": 15.94254
        },
        {
          "name": "Sollenau",
          "lat": 47.89834,
          "lon": 16.24833
        },
        {
          "name": "Sommerein",
          "lat": 47.98333,
          "lon": 16.65
        },
        {
          "name": "Sonntagberg",
          "lat": 47.99561,
          "lon": 14.76065
        },
        {
          "name": "Sooss",
          "lat": 47.98464,
          "lon": 16.21737
        },
        {
          "name": "Spannberg",
          "lat": 48.46393,
          "lon": 16.73647
        },
        {
          "name": "Spillern",
          "lat": 48.38333,
          "lon": 16.25
        },
        {
          "name": "Spitz",
          "lat": 48.3656,
          "lon": 15.41416
        },
        {
          "name": "Spratzern",
          "lat": 48.17044,
          "lon": 15.61844
        },
        {
          "name": "Staatz",
          "lat": 48.67617,
          "lon": 16.48726
        },
        {
          "name": "Stattersdorf",
          "lat": 48.18333,
          "lon": 15.63333
        },
        {
          "name": "Statzendorf",
          "lat": 48.30752,
          "lon": 15.64127
        },
        {
          "name": "Stein an der Donau",
          "lat": 48.40163,
          "lon": 15.58102
        },
        {
          "name": "Steinabrückl",
          "lat": 47.87053,
          "lon": 16.20277
        },
        {
          "name": "Steinakirchen am Forst",
          "lat": 48.06965,
          "lon": 15.04801
        },
        {
          "name": "Stephanshart",
          "lat": 48.15,
          "lon": 14.81667
        },
        {
          "name": "Stetteldorf am Wagram",
          "lat": 48.40815,
          "lon": 16.01862
        },
        {
          "name": "Stetten",
          "lat": 48.36667,
          "lon": 16.38333
        },
        {
          "name": "Stockerau",
          "lat": 48.38333,
          "lon": 16.21667
        },
        {
          "name": "Stollhofen",
          "lat": 48.35226,
          "lon": 15.75963
        },
        {
          "name": "Stössing",
          "lat": 48.12267,
          "lon": 15.81379
        },
        {
          "name": "Strass",
          "lat": 48.46667,
          "lon": 15.73333
        },
        {
          "name": "Strasshof an der Nordbahn",
          "lat": 48.31667,
          "lon": 16.66667
        },
        {
          "name": "Stratzing",
          "lat": 48.45,
          "lon": 15.6
        },
        {
          "name": "Strengberg",
          "lat": 48.14685,
          "lon": 14.65147
        },
        {
          "name": "Stronsdorf",
          "lat": 48.65157,
          "lon": 16.2989
        },
        {
          "name": "Tattendorf",
          "lat": 47.95,
          "lon": 16.3
        },
        {
          "name": "Teesdorf",
          "lat": 47.95,
          "lon": 16.28333
        },
        {
          "name": "Ternitz",
          "lat": 47.71565,
          "lon": 16.03575
        },
        {
          "name": "Thaya",
          "lat": 48.85489,
          "lon": 15.28902
        },
        {
          "name": "Theresienfeld",
          "lat": 47.85,
          "lon": 16.23333
        },
        {
          "name": "Thomasberg",
          "lat": 47.56667,
          "lon": 16.13333
        },
        {
          "name": "Tiefenbach",
          "lat": 47.5354,
          "lon": 16.21346
        },
        {
          "name": "Traisen",
          "lat": 48.03333,
          "lon": 15.6
        },
        {
          "name": "Traiskirchen",
          "lat": 48.01485,
          "lon": 16.29324
        },
        {
          "name": "Traismauer",
          "lat": 48.35,
          "lon": 15.73333
        },
        {
          "name": "Trattenbach",
          "lat": 47.6,
          "lon": 15.86667
        },
        {
          "name": "Trautmannsdorf an der Leitha",
          "lat": 48.02357,
          "lon": 16.63266
        },
        {
          "name": "Tribuswinkel",
          "lat": 48.00623,
          "lon": 16.27075
        },
        {
          "name": "Trumau",
          "lat": 47.99348,
          "lon": 16.34268
        },
        {
          "name": "Tulbing",
          "lat": 48.29336,
          "lon": 16.12226
        },
        {
          "name": "Tulln",
          "lat": 48.32829,
          "lon": 16.05858
        },
        {
          "name": "Tullnerbach-Lawies",
          "lat": 48.18912,
          "lon": 16.09117
        },
        {
          "name": "Türnitz",
          "lat": 47.93095,
          "lon": 15.49295
        },
        {
          "name": "Ulrichskirchen",
          "lat": 48.4,
          "lon": 16.48333
        },
        {
          "name": "Untersiebenbrunn",
          "lat": 48.25,
          "lon": 16.73333
        },
        {
          "name": "Unterstinkenbrunn",
          "lat": 48.6677,
          "lon": 16.34607
        },
        {
          "name": "Unterwagram",
          "lat": 48.21243,
          "lon": 15.64951
        },
        {
          "name": "Unterwaltersdorf",
          "lat": 47.95,
          "lon": 16.41667
        },
        {
          "name": "Velm",
          "lat": 48.03333,
          "lon": 16.43333
        },
        {
          "name": "Viehofen",
          "lat": 48.21667,
          "lon": 15.61667
        },
        {
          "name": "Vitis",
          "lat": 48.75964,
          "lon": 15.18259
        },
        {
          "name": "Vösendorf",
          "lat": 48.12107,
          "lon": 16.34036
        },
        {
          "name": "Waidhofen an der Thaya",
          "lat": 48.81667,
          "lon": 15.28333
        },
        {
          "name": "Waidhofen an der Ybbs",
          "lat": 47.96004,
          "lon": 14.77361
        },
        {
          "name": "Waidhofen an der Ybbs Stadt",
          "lat": 47.95999,
          "lon": 14.77438
        },
        {
          "name": "Waidmannsfeld",
          "lat": 47.87042,
          "lon": 15.98116
        },
        {
          "name": "Waldegg",
          "lat": 47.86852,
          "lon": 16.05154
        },
        {
          "name": "Waldenstein",
          "lat": 48.72845,
          "lon": 15.01419
        },
        {
          "name": "Waldhausen",
          "lat": 48.52183,
          "lon": 15.2625
        },
        {
          "name": "Waldkirchen an der Thaya",
          "lat": 48.93333,
          "lon": 15.35
        },
        {
          "name": "Wallsee",
          "lat": 48.16667,
          "lon": 14.71667
        },
        {
          "name": "Walpersbach",
          "lat": 47.71667,
          "lon": 16.23333
        },
        {
          "name": "Wang",
          "lat": 48.04538,
          "lon": 15.02672
        },
        {
          "name": "Warth",
          "lat": 47.65,
          "lon": 16.11667
        },
        {
          "name": "Wartmannstetten",
          "lat": 47.69359,
          "lon": 16.07506
        },
        {
          "name": "Weidling",
          "lat": 48.291,
          "lon": 16.30865
        },
        {
          "name": "Weigelsdorf",
          "lat": 47.95,
          "lon": 16.4
        },
        {
          "name": "Weikendorf",
          "lat": 48.34438,
          "lon": 16.76651
        },
        {
          "name": "Weikersdorf am Steinfelde",
          "lat": 47.80612,
          "lon": 16.14389
        },
        {
          "name": "Weinburg",
          "lat": 48.11351,
          "lon": 15.53295
        },
        {
          "name": "Weinzierl am Walde",
          "lat": 48.43211,
          "lon": 15.4321
        },