{
  "iso2": "BO",
  "name": "Bolivia",
  "nativeName": "Bolivia",
  "lat": -17,
  "lon": -65,
  "states": [
    {
      "name": "Beni Department",
      "stateCode": "B",
      "lat": -14.3782747,
      "lon": -65.0957792,
      "cities": [
        {
          "name": "Guayaramerín",
          "lat": -10.8258,
          "lon": -65.3581
        },
        {
          "name": "Provincia Cercado",
          "lat": -14.5,
          "lon": -64.33333
        },
        {
          "name": "Provincia General José Ballivián",
          "lat": -14,
          "lon": -67.08333
        },
        {
          "name": "Provincia Iténez",
          "lat": -13.41667,
          "lon": -63.5
        },
        {
          "name": "Provincia Mamoré",
          "lat": -13,
          "lon": -64.91667
        },
        {
          "name": "Provincia Marbán",
          "lat": -15.66667,
          "lon": -64.33333
        },
        {
          "name": "Provincia Moxos",
          "lat": -15.16667,
          "lon": -65.5
        },
        {
          "name": "Provincia Vaca Diez",
          "lat": -11.66667,
          "lon": -66
        },
        {
          "name": "Provincia Yacuma",
          "lat": -13.5,
          "lon": -66
        },
        {
          "name": "Reyes",
          "lat": -14.2952,
          "lon": -67.33624
        },
        {
          "name": "Riberalta",
          "lat": -11.00654,
          "lon": -66.06312
        },
        {
          "name": "Rurrenabaque",
          "lat": -14.44125,
          "lon": -67.52781
        },
        {
          "name": "San Borja",
          "lat": -14.81667,
          "lon": -66.85
        },
        {
          "name": "San Ramón",
          "lat": -13.28333,
          "lon": -64.71667
        },
        {
          "name": "Santa Ana de Yacuma",
          "lat": -13.74406,
          "lon": -65.42688
        },
        {
          "name": "Santa Rosa",
          "lat": -14.16667,
          "lon": -66.88333
        },
        {
          "name": "Trinidad",
          "lat": -14.83333,
          "lon": -64.9
        }
      ]
    },
    {
      "name": "Chuquisaca Department",
      "stateCode": "H",
      "lat": -20.0249144,
      "lon": -64.1478236,
      "cities": [
        {
          "name": "Camargo",
          "lat": -20.64064,
          "lon": -65.20893
        },
        {
          "name": "Monteagudo",
          "lat": -19.79989,
          "lon": -63.95461
        },
        {
          "name": "Padilla",
          "lat": -19.30878,
          "lon": -64.30273
        },
        {
          "name": "Provincia Azurduy",
          "lat": -20,
          "lon": -64.5
        },
        {
          "name": "Provincia Belisario Boeto",
          "lat": -18.91667,
          "lon": -64.33333
        },
        {
          "name": "Provincia Hernando Siles",
          "lat": -20.16667,
          "lon": -64.25
        },
        {
          "name": "Provincia Luis Calvo",
          "lat": -20.66667,
          "lon": -63.5
        },
        {
          "name": "Provincia Nor Cinti",
          "lat": -20.33333,
          "lon": -65
        },
        {
          "name": "Provincia Oropeza",
          "lat": -18.66667,
          "lon": -65.16667
        },
        {
          "name": "Provincia Sud Cinti",
          "lat": -20.91667,
          "lon": -64.91667
        },
        {
          "name": "Provincia Tomina",
          "lat": -19.5,
          "lon": -64.16667
        },
        {
          "name": "Provincia Yamparáez",
          "lat": -19.16667,
          "lon": -64.91667
        },
        {
          "name": "Provincia Zudáñez",
          "lat": -18.91667,
          "lon": -64.83333
        },
        {
          "name": "Sucre",
          "lat": -19.03332,
          "lon": -65.26274
        },
        {
          "name": "Tarabuco",
          "lat": -19.18168,
          "lon": -64.91517
        }
      ]
    },
    {
      "name": "Cochabamba Department",
      "stateCode": "C",
      "lat": -17.5681675,
      "lon": -65.475736,
      "cities": [
        {
          "name": "Aiquile",
          "lat": -18.20408,
          "lon": -65.18068
        },
        {
          "name": "Arani",
          "lat": -17.56854,
          "lon": -65.76883
        },
        {
          "name": "Bolivar",
          "lat": -17.96667,
          "lon": -66.53333
        },
        {
          "name": "Capinota",
          "lat": -17.71113,
          "lon": -66.26082
        },
        {
          "name": "Chimoré",
          "lat": -16.99417,
          "lon": -65.1533
        },
        {
          "name": "Cliza",
          "lat": -17.58777,
          "lon": -65.93253
        },
        {
          "name": "Cochabamba",
          "lat": -17.3895,
          "lon": -66.1568
        },
        {
          "name": "Colchani",
          "lat": -17.31667,
          "lon": -66.71667
        },
        {
          "name": "Colomi",
          "lat": -17.35,
          "lon": -65.86667
        },
        {
          "name": "Independencia",
          "lat": -17.08389,
          "lon": -66.81804
        },
        {
          "name": "Irpa Irpa",
          "lat": -17.71667,
          "lon": -66.26667
        },
        {
          "name": "Mizque",
          "lat": -17.94101,
          "lon": -65.34016
        },
        {
          "name": "Provincia Arani",
          "lat": -17.5,
          "lon": -65.5
        },
        {
          "name": "Provincia Arque",
          "lat": -17.75,
          "lon": -66.66667
        },
        {
          "name": "Provincia Ayopaya",
          "lat": -16.5,
          "lon": -66.58333
        },
        {
          "name": "Provincia Campero",
          "lat": -18.33333,
          "lon": -65
        },
        {
          "name": "Provincia Capinota",
          "lat": -17.83333,
          "lon": -66.16667
        },
        {
          "name": "Provincia Carrasco",
          "lat": -17.5,
          "lon": -65
        },
        {
          "name": "Provincia Cercado",
          "lat": -17.33333,
          "lon": -66.16667
        },
        {
          "name": "Provincia Chaparé",
          "lat": -16.5,
          "lon": -65.5
        },
        {
          "name": "Provincia Esteban Arce",
          "lat": -17.66667,
          "lon": -66
        },
        {
          "name": "Provincia Germán Jordán",
          "lat": -17.58333,
          "lon": -65.91667
        },
        {
          "name": "Provincia Mizque",
          "lat": -17.90655,
          "lon": -65.3944
        },
        {
          "name": "Provincia Punata",
          "lat": -17.5,
          "lon": -65.91667
        },
        {
          "name": "Provincia Quillacollo",
          "lat": -17.5,
          "lon": -66.5
        },
        {
          "name": "Provincia Tapacarí",
          "lat": -17.51146,
          "lon": -66.61965
        },
        {
          "name": "Punata",
          "lat": -17.54234,
          "lon": -65.83472
        },
        {
          "name": "Quillacollo",
          "lat": -17.39228,
          "lon": -66.27838
        },
        {
          "name": "Sacaba",
          "lat": -17.39799,
          "lon": -66.03825
        },
        {
          "name": "Sipe Sipe",
          "lat": -17.45,
          "lon": -66.38333
        },
        {
          "name": "Tarata",
          "lat": -17.60898,
          "lon": -66.02135
        },
        {
          "name": "Tiquipaya",
          "lat": -17.33801,
          "lon": -66.21579
        },
        {
          "name": "Tiraque Province",
          "lat": -17.33333,
          "lon": -65.91667
        },
        {
          "name": "Totora",
          "lat": -17.72662,
          "lon": -65.1932
        }
      ]
    },
    {
      "name": "La Paz Department",
      "stateCode": "L",
      "lat": 0,
      "lon": 0,
      "cities": [
        {
          "name": "Achacachi",
          "lat": -16.05,
          "lon": -68.68333
        },
        {
          "name": "Amarete",
          "lat": -15.23675,
          "lon": -68.98462
        },
        {
          "name": "Batallas",
          "lat": -16.3,
          "lon": -68.53333
        },
        {
          "name": "Caranavi",
          "lat": -15.83652,
          "lon": -67.56901
        },
        {
          "name": "Chulumani",
          "lat": -16.40855,
          "lon": -67.5294
        },
        {
          "name": "Colquiri",
          "lat": -17.38918,
          "lon": -67.12671
        },
        {
          "name": "Coripata",
          "lat": -16.3,
          "lon": -67.6
        },
        {
          "name": "Coroico",
          "lat": -16.19386,
          "lon": -67.72998
        },
        {
          "name": "Curahuara de Carangas",
          "lat": -17.86667,
          "lon": -68.43333
        },
        {
          "name": "Eucaliptus",
          "lat": -17.58333,
          "lon": -67.51667
        },
        {
          "name": "Guanay",
          "lat": -15.49756,
          "lon": -67.88332
        },
        {
          "name": "Huarina",
          "lat": -16.2,
          "lon": -68.63333
        },
        {
          "name": "Huatajata",
          "lat": -16.2,
          "lon": -68.68333
        },
        {
          "name": "José Manuel Pando",
          "lat": -16.1897,
          "lon": -67.72664
        },
        {
          "name": "La Paz",
          "lat": -16.5,
          "lon": -68.15
        },
        {
          "name": "Lahuachaca",
          "lat": -17.37054,
          "lon": -67.67501
        },
        {
          "name": "Mapiri",
          "lat": -15.25,
          "lon": -68.16667
        },
        {
          "name": "Patacamaya",
          "lat": -17.2358,
          "lon": -67.92169
        },
        {
          "name": "Provincia Aroma",
          "lat": -17.5,
          "lon": -68
        },
        {
          "name": "Provincia Bautista Saavedra",
          "lat": -15,
          "lon": -68.91667
        },
        {
          "name": "Provincia Camacho",
          "lat": -15.5,
          "lon": -69
        },
        {
          "name": "Provincia Franz Tamayo",
          "lat": -14.5,
          "lon": -68.33333
        },
        {
          "name": "Provincia Gualberto Villarroel",
          "lat": -17.58333,
          "lon": -68
        },
        {
          "name": "Provincia Ingavi",
          "lat": -16.83333,
          "lon": -68.66667
        },
        {
          "name": "Provincia Inquisivi",
          "lat": -17,
          "lon": -67.08333
        },
        {
          "name": "Provincia Iturralde",
          "lat": -13,
          "lon": -68
        },
        {
          "name": "Provincia Larecaja",
          "lat": -15.5,
          "lon": -68.33333
        },
        {
          "name": "Provincia Loayza",
          "lat": -17,
          "lon": -67.66667
        },
        {
          "name": "Provincia Los Andes",
          "lat": -16.33333,
          "lon": -68.5
        },
        {
          "name": "Provincia Manco Kapac",
          "lat": -16,
          "lon": -69.16667
        },
        {
          "name": "Provincia Muñecas",
          "lat": -15.33333,
          "lon": -68.66667
        },
        {
          "name": "Provincia Murillo",
          "lat": -16.33333,
          "lon": -68
        },
        {
          "name": "Provincia Nor Yungas",
          "lat": -16,
          "lon": -67.5
        },
        {
          "name": "Provincia Omasuyos",
          "lat": -15.91667,
          "lon": -68.83333
        },
        {
          "name": "Provincia Pacajes",
          "lat": -17.5,
          "lon": -69
        },
        {
          "name": "Provincia Sud Yungas",
          "lat": -16.5,
          "lon": -67.5
        },
        {
          "name": "Quime",
          "lat": -16.98333,
          "lon": -67.21667
        },
        {
          "name": "San Pablo",
          "lat": -16.21667,
          "lon": -68.83333
        },
        {
          "name": "San Pedro",
          "lat": -16.23717,
          "lon": -68.85063
        },
        {
          "name": "Sorata",
          "lat": -15.77305,
          "lon": -68.64973
        },
        {
          "name": "Tiahuanaco",
          "lat": -16.55228,
          "lon": -68.67953
        },
        {
          "name": "Viloco",
          "lat": -16.95,
          "lon": -67.55
        },
        {
          "name": "Yumani",
          "lat": -16.03574,
          "lon": -69.14843
        }
      ]
    },
    {
      "name": "Oruro Department",
      "stateCode": "O",
      "lat": -18.5711579,
      "lon": -67.7615983,
      "cities": [
        {
          "name": "Challapata",
          "lat": -18.90208,
          "lon": -66.77048
        },
        {
          "name": "Huanuni",
          "lat": -18.289,
          "lon": -66.83583
        },
        {
          "name": "Litoral de Atacama",
          "lat": -18.76071,
          "lon": -68.24295
        },
        {
          "name": "Machacamarca",
          "lat": -18.17251,
          "lon": -67.02099
        },
        {
          "name": "Nor Carangas Province",
          "lat": -17.8375,
          "lon": -67.9433
        },
        {
          "name": "Oruro",
          "lat": -17.98333,
          "lon": -67.15
        },
        {
          "name": "Poopó",
          "lat": -18.38026,
          "lon": -66.96695
        },
        {
          "name": "Provincia Avaroa",
          "lat": -19,
          "lon": -66.66667
        },
        {
          "name": "Provincia Carangas",
          "lat": -18.33333,
          "lon": -67.75
        },
        {
          "name": "Provincia Cercado",
          "lat": -17.91667,
          "lon": -67.08333
        },
        {
          "name": "Provincia Ladislao Cabrera",
          "lat": -19.5,
          "lon": -67.66667
        },
        {
          "name": "Provincia Pantaleón Dalence",
          "lat": -18.33333,
          "lon": -66.91667
        },
        {
          "name": "Provincia Poopó",
          "lat": -18.5,
          "lon": -66.91667
        },
        {
          "name": "Provincia Sabaya",
          "lat": -19,
          "lon": -68.58333
        },
        {
          "name": "Provincia Sajama",
          "lat": -18.2,
          "lon": -68.55
        },
        {
          "name": "Provincia San Pedro de Totora",
          "lat": -17.83333,
          "lon": -68.2
        },
        {
          "name": "Provincia Saucari",
          "lat": -18.25,
          "lon": -67.41667
        },
        {
          "name": "Provincia Tomás Barron",
          "lat": -17.83333,
          "lon": -68.25
        },
        {
          "name": "Puerto de Mejillones",
          "lat": -18.99266,
          "lon": -68.68446
        },
        {
          "name": "Sebastian Pagador Province",
          "lat": -19.21667,
          "lon": -66.21667
        },
        {
          "name": "Sud Carangas Province",
          "lat": -18.5,
          "lon": -68.25
        },
        {
          "name": "Totoral",
          "lat": -18.49587,
          "lon": -66.8738
        }
      ]
    },
    {
      "name": "Pando Department",
      "stateCode": "N",
      "lat": -10.7988901,
      "lon": -66.9988011,
      "cities": [
        {
          "name": "Cobija",
          "lat": -11.02671,
          "lon": -68.76918
        },
        {
          "name": "Provincia Abuná",
          "lat": -10.5,
          "lon": -66.5
        },
        {
          "name": "Provincia General Federico Román",
          "lat": -10.33333,
          "lon": -65.88333
        },
        {
          "name": "Provincia Madre de Dios",
          "lat": -11.58333,
          "lon": -67
        },
        {
          "name": "Provincia Manuripi",
          "lat": -11.33333,
          "lon": -67.5
        },
        {
          "name": "Provincia Nicolás Suárez",
          "lat": -11.33333,
          "lon": -68.5
        }
      ]
    },
    {
      "name": "Potosí Department",
      "stateCode": "P",
      "lat": -20.624713,
      "lon": -66.9988011,
      "cities": [
        {
          "name": "Atocha",
          "lat": -20.93515,
          "lon": -66.22139
        },
        {
          "name": "Betanzos",
          "lat": -19.55293,
          "lon": -65.45395
        },
        {
          "name": "Colchani",
          "lat": -20.3,
          "lon": -66.93333
        },
        {
          "name": "Colquechaca",
          "lat": -18.70031,
          "lon": -66.00397
        },
        {
          "name": "Enrique Baldivieso",
          "lat": -21.38323,
          "lon": -67.60368
        },
        {
          "name": "Llallagua",
          "lat": -18.42426,
          "lon": -66.58388
        },
        {
          "name": "Potosí",
          "lat": -19.58361,
          "lon": -65.75306
        },
        {
          "name": "Provincia Alonzo de Ibáñez",
          "lat": -18.5,
          "lon": -66.33333
        },
        {
          "name": "Provincia Charcas",
          "lat": -18.33333,
          "lon": -65.83333
        },
        {
          "name": "Provincia Chayanta",
          "lat": -18.91667,
          "lon": -66
        },
        {
          "name": "Provincia Daniel Campos",
          "lat": -20.25,
          "lon": -68.25
        },
        {
          "name": "Provincia General Bilbao",
          "lat": -18.08333,
          "lon": -66
        },
        {
          "name": "Provincia Linares",
          "lat": -19.83333,
          "lon": -65.5
        },
        {
          "name": "Provincia Modesto Omiste",
          "lat": -21.91667,
          "lon": -65.58333
        },
        {
          "name": "Provincia Nor Chichas",
          "lat": -20.66667,
          "lon": -66
        },
        {
          "name": "Provincia Nor Lípez",
          "lat": -20.5,
          "lon": -67.83333
        },
        {
          "name": "Provincia Quijarro",
          "lat": -20,
          "lon": -66.33333
        },
        {
          "name": "Provincia Rafael Bustillo",
          "lat": -18.33333,
          "lon": -66.5
        },
        {
          "name": "Provincia Saavedra",
          "lat": -19.25,
          "lon": -65.5
        },
        {
          "name": "Provincia Sud Chichas",
          "lat": -21.5,
          "lon": -66
        },
        {
          "name": "Provincia Sud Lípez",
          "lat": -22,
          "lon": -67.5
        },
        {
          "name": "Provincia Tomás Frías",
          "lat": -19.33333,
          "lon": -66
        },
        {
          "name": "Santa Bárbara",
          "lat": -20.91667,
          "lon": -66.05
        },
        {
          "name": "Tupiza",
          "lat": -21.44345,
          "lon": -65.71875
        },
        {
          "name": "Uyuni",
          "lat": -20.45967,
          "lon": -66.82503
        },
        {
          "name": "Villazón",
          "lat": -22.08659,
          "lon": -65.59422
        }
      ]
    },
    {
      "name": "Santa Cruz Department",
      "stateCode": "S",
      "lat": -16.7476037,
      "lon": -62.0750998,
      "cities": [
        {
          "name": "Abapó",
          "lat": -18.88279,
          "lon": -63.38026
        },
        {
          "name": "Ascención de Guarayos",
          "lat": -15.89299,
          "lon": -63.18855
        },
        {
          "name": "Ascensión",
          "lat": -15.7,
          "lon": -63.08333
        },
        {
          "name": "Boyuibe",
          "lat": -20.43227,
          "lon": -63.28147
        },
        {
          "name": "Buena Vista",
          "lat": -17.4583,
          "lon": -63.67126
        },
        {
          "name": "Camiri",
          "lat": -20.03849,
          "lon": -63.51833
        },
        {
          "name": "Charagua",
          "lat": -19.79151,
          "lon": -63.19864
        },
        {
          "name": "Comarapa",
          "lat": -17.91537,
          "lon": -64.53163
        },
        {
          "name": "Concepción",
          "lat": -16.43333,
          "lon": -60.9
        },
        {
          "name": "Cotoca",
          "lat": -17.81667,
          "lon": -63.05
        },
        {
          "name": "German Busch",
          "lat": -17.77317,
          "lon": -63.19087
        },
        {
          "name": "Guarayos",
          "lat": -15.82132,
          "lon": -63.2428
        },
        {
          "name": "Jorochito",
          "lat": -18.05514,
          "lon": -63.42821
        },
        {
          "name": "La Bélgica",
          "lat": -17.55,
          "lon": -63.21667
        },
        {
          "name": "Limoncito",
          "lat": -18.03104,
          "lon": -63.40523
        },
        {
          "name": "Los Negros",
          "lat": -17.73333,
          "lon": -63.43333
        },
        {
          "name": "Mairana",
          "lat": -18.11919,
          "lon": -63.95965
        },
        {
          "name": "Mineros",
          "lat": -17.11876,
          "lon": -63.231
        },
        {
          "name": "Montero",
          "lat": -17.33866,
          "lon": -63.2505
        },
        {
          "name": "Okinawa Número Uno",
          "lat": -17.23333,
          "lon": -62.81667
        },
        {
          "name": "Pailón",
          "lat": -17.65,
          "lon": -62.75
        },
        {
          "name": "Paurito",
          "lat": -17.88333,
          "lon": -62.96667
        },
        {
          "name": "Portachuelo",
          "lat": -17.35168,
          "lon": -63.39282
        },
        {
          "name": "Provincia Andrés Ibáñez",
          "lat": -17.75,
          "lon": -63.25
        },
        {
          "name": "Provincia Ángel Sandoval",
          "lat": -17.5,
          "lon": -58.5
        },
        {
          "name": "Provincia Chiquitos",
          "lat": -18,
          "lon": -60
        },
        {
          "name": "Provincia Cordillera",
          "lat": -19,
          "lon": -61.5
        },
        {
          "name": "Provincia Florida",
          "lat": -18,
          "lon": -63.91667
        },
        {
          "name": "Provincia Ichilo",
          "lat": -17,
          "lon": -64
        },
        {
          "name": "Provincia Manuel María Caballero",
          "lat": -17.83333,
          "lon": -64.41667
        },
        {
          "name": "Provincia Ñuflo de Chávez",
          "lat": -15.91667,
          "lon": -62.5
        },
        {
          "name": "Provincia Santiesteban",
          "lat": -16.5,
          "lon": -63.5
        },
        {
          "name": "Provincia Sara",
          "lat": -16.83333,
          "lon": -63.91667
        },
        {
          "name": "Provincia Vallegrande",
          "lat": -18.5,
          "lon": -64.16667
        },
        {
          "name": "Provincia Velasco",
          "lat": -15.5,
          "lon": -61
        },
        {
          "name": "Provincia Warnes",
          "lat": -17.33333,
          "lon": -63
        },
        {
          "name": "Puerto Quijarro",
          "lat": -17.78333,
          "lon": -57.76667
        },
        {
          "name": "Puesto de Pailas",
          "lat": -17.65,
          "lon": -62.8
        },
        {
          "name": "Roboré",
          "lat": -18.33473,
          "lon": -59.76142
        },
        {
          "name": "Samaipata",
          "lat": -18.18005,
          "lon": -63.87552
        },
        {
          "name": "San Carlos",
          "lat": -17.4,
          "lon": -63.75
        },
        {
          "name": "San Ignacio de Velasco",
          "lat": -16.36667,
          "lon": -60.95
        },
        {
          "name": "San Juan del Surutú",
          "lat": -17.48333,
          "lon": -63.7
        },
        {
          "name": "San Julian",
          "lat": -17.78333,
          "lon": -62.86667
        },
        {
          "name": "San Matías",
          "lat": -16.36667,
          "lon": -58.4
        },
        {
          "name": "San Pedro",
          "lat": -18.28333,
          "lon": -59.81667
        },
        {
          "name": "Santa Cruz de la Sierra",
          "lat": -17.78629,
          "lon": -63.18117
        },
        {
          "name": "Santa Rita",
          "lat": -17.96667,
          "lon": -63.35
        },
        {
          "name": "Santa Rosa del Sara",
          "lat": -17.10916,
          "lon": -63.59514
        },
        {
          "name": "Santiago del Torno",
          "lat": -17.98674,
          "lon": -63.38118
        },
        {
          "name": "Urubichá",
          "lat": -15.39286,
          "lon": -62.94661
        },
        {
          "name": "Vallegrande",
          "lat": -18.48923,
          "lon": -64.10609
        },
        {
          "name": "Villa Yapacaní",
          "lat": -17.4,
          "lon": -63.83333
        },
        {
          "name": "Warnes",
          "lat": -17.5163,
          "lon": -63.16778
        }
      ]
    },
    {
      "name": "Tarija Department",
      "stateCode": "T",
      "lat": -21.5831595,
      "lon": -63.9586111,
      "cities": [
        {
          "name": "Bermejo",
          "lat": -22.73206,
          "lon": -64.33724
        },
        {
          "name": "Entre Ríos",
          "lat": -21.52661,
          "lon": -64.17299
        },
        {
          "name": "Provincia Arce",
          "lat": -22.16667,
          "lon": -64.33333
        },
        {
          "name": "Provincia Avilez",
          "lat": -21.66667,
          "lon": -65
        },
        {
          "name": "Provincia Cercado",
          "lat": -21.58333,
          "lon": -64.58333
        },
        {
          "name": "Provincia Gran Chaco",
          "lat": -21.66667,
          "lon": -63
        },
        {
          "name": "Provincia Méndez",
          "lat": -21.16667,
          "lon": -64.91667
        },
        {
          "name": "Provincia O’Connor",
          "lat": -21.58333,
          "lon": -64.16667
        },
        {
          "name": "Tarija",
          "lat": -21.53549,
          "lon": -64.72956
        },
        {
          "name": "Villamontes",
          "lat": -21.26235,
          "lon": -63.46903
        },
        {
          "name": "Yacuiba",
          "lat": -22.01643,
          "lon": -63.67753
        }
      ]
    }
  ]
}