{
  "iso2": "GD",
  "name": "Grenada",
  "nativeName": "Grenada",
  "lat": 12.11666666,
  "lon": -61.66666666,
  "states": [
    {
      "name": "Carriacou and Petite Martinique",
      "stateCode": "10",
      "lat": 12.4785888,
      "lon": -61.4493842,
      "cities": [
        {
          "name": "Hillsborough",
          "lat": 12.48292,
          "lon": -61.45597
        }
      ]
    },
    {
      "name": "Saint Andrew Parish",
      "stateCode": "01",
      "lat": 0,
      "lon": 0,
      "cities": [
        {
          "name": "Grenville",
          "lat": 12.12278,
          "lon": -61.62498
        }
      ]
    },
    {
      "name": "Saint David Parish",
      "stateCode": "02",
      "lat": 0,
      "lon": 0,
      "cities": [
        {
          "name": "Saint David’s",
          "lat": 12.04903,
          "lon": -61.66875
        }
      ]
    },
    {
      "name": "Saint George Parish",
      "stateCode": "03",
      "lat": 0,
      "lon": 0,
      "cities": [
        {
          "name": "Saint George's",
          "lat": 12.05288,
          "lon": -61.75226
        }
      ]
    },
    {
      "name": "Saint John Parish",
      "stateCode": "04",
      "lat": 30.1118331,
      "lon": -90.4879916,
      "cities": [
        {
          "name": "Gouyave",
          "lat": 12.16462,
          "lon": -61.72965
        }
      ]
    },
    {
      "name": "Saint Mark Parish",
      "stateCode": "05",
      "lat": 40.5881863,
      "lon": -73.9495701,
      "cities": [
        {
          "name": "Victoria",
          "lat": 12.19021,
          "lon": -61.70677
        }
      ]
    },
    {
      "name": "Saint Patrick Parish",
      "stateCode": "06",
      "lat": 0,
      "lon": 0,
      "cities": [
        {
          "name": "Sauteurs",
          "lat": 12.21833,
          "lon": -61.63917
        }
      ]
    }
  ]
}