{
  "iso2": "GH",
  "name": "Ghana",
  "nativeName": "Ghana",
  "lat": 8,
  "lon": -2,
  "states": [
    {
      "name": "Ahafo",
      "stateCode": "AF",
      "lat": 7.5821372,
      "lon": -2.5497463,
      "cities": [
        {
          "name": "Asunafo North",
          "lat": 6.8196891,
          "lon": -2.807705
        },
        {
          "name": "Asunafo South",
          "lat": 6.6480138,
          "lon": -2.6887437
        },
        {
          "name": "Asutifi North",
          "lat": 6.9477486,
          "lon": -2.7675716
        },
        {
          "name": "Asutifi South",
          "lat": 6.6480138,
          "lon": -2.6887437
        },
        {
          "name": "Tano North",
          "lat": 7.2260301,
          "lon": -2.3045656
        },
        {
          "name": "Tano South",
          "lat": 7.1953793,
          "lon": -2.1258661
        }
      ]
    },
    {
      "name": "Ashanti",
      "stateCode": "AH",
      "lat": 6.7470436,
      "lon": -1.5208624,
      "cities": [
        {
          "name": "Agogo",
          "lat": 6.80004,
          "lon": -1.08193
        },
        {
          "name": "Bekwai",
          "lat": 6.45195,
          "lon": -1.57866
        },
        {
          "name": "Ejura",
          "lat": 7.38558,
          "lon": -1.35617
        },
        {
          "name": "Konongo",
          "lat": 6.61667,
          "lon": -1.21667
        },
        {
          "name": "Kumasi",
          "lat": 6.68848,
          "lon": -1.62443
        },
        {
          "name": "Mampong",
          "lat": 7.06273,
          "lon": -1.4001
        },
        {
          "name": "Obuase",
          "lat": 6.20228,
          "lon": -1.66796
        },
        {
          "name": "Tafo",
          "lat": 6.73156,
          "lon": -1.6137
        }
      ]
    },
    {
      "name": "Bono",
      "stateCode": "BO",
      "lat": 7.65,
      "lon": -2.5,
      "cities": [
        {
          "name": "Banda",
          "lat": 8.1495671,
          "lon": -2.366395
        },
        {
          "name": "Berekum East",
          "lat": 7.5111758,
          "lon": -2.7599831
        },
        {
          "name": "Berekum West",
          "lat": 7.5111758,
          "lon": -2.7599831
        },
        {
          "name": "Dormaa Central",
          "lat": 7.2775,
          "lon": -2.878333
        },
        {
          "name": "Dormaa East",
          "lat": 7.3,
          "lon": -2.7
        },
        {
          "name": "Dormaa West",
          "lat": 7.016667,
          "lon": -3.05
        },
        {
          "name": "Jaman North",
          "lat": 7.9883234,
          "lon": -2.9685869
        },
        {
          "name": "Jaman South",
          "lat": 7.7084375,
          "lon": -3.075017
        },
        {
          "name": "Sunyani",
          "lat": 7.3380332,
          "lon": -2.3487146
        },
        {
          "name": "Sunyani West",
          "lat": 7.3566052,
          "lon": -2.4461862
        },
        {
          "name": "Tain",
          "lat": 8.1811411,
          "lon": -2.8648762
        },
        {
          "name": "Wenchi",
          "lat": 7.7405992,
          "lon": -2.1226788
        }
      ]
    },
    {
      "name": "Bono East",
      "stateCode": "BE",
      "lat": 7.75,
      "lon": -1.05,
      "cities": [
        {
          "name": "Atebubu-Amantin",
          "lat": 7.70237,
          "lon": -1.2197943
        },
        {
          "name": "Kintampo North",
          "lat": 8.3963579,
          "lon": -1.8200007
        },
        {
          "name": "Kintampo South",
          "lat": 7.9897132,
          "lon": -2.0071115
        },
        {
          "name": "Nkoranza North",
          "lat": 7.5660331,
          "lon": -1.723652
        },
        {
          "name": "Nkoranza South",
          "lat": 7.6240512,
          "lon": -1.7997446
        },
        {
          "name": "Pru East",
          "lat": 8.2262,
          "lon": -0.6536
        },
        {
          "name": "Pru West",
          "lat": 8.0735993,
          "lon": -1.2905541
        },
        {
          "name": "Sene East",
          "lat": 7.783,
          "lon": -0.217
        },
        {
          "name": "Sene West",
          "lat": 7.7342,
          "lon": -0.6818
        },
        {
          "name": "Techiman",
          "lat": 7.5896856,
          "lon": -1.9512214
        },
        {
          "name": "Techiman North",
          "lat": 7.7042802,
          "lon": -2.0814057
        }
      ]
    },
    {
      "name": "Central",
      "stateCode": "CP",
      "lat": 5.5,
      "lon": -1,
      "cities": [
        {
          "name": "Apam",
          "lat": 5.28483,
          "lon": -0.73711
        },
        {
          "name": "Cape Coast",
          "lat": 5.10535,
          "lon": -1.2466
        },
        {
          "name": "Dunkwa",
          "lat": 5.95996,
          "lon": -1.77792
        },
        {
          "name": "Elmina",
          "lat": 5.0847,
          "lon": -1.35093
        },
        {
          "name": "Foso",
          "lat": 5.70119,
          "lon": -1.28657
        },
        {
          "name": "Kasoa",
          "lat": 5.53449,
          "lon": -0.41679
        },
        {
          "name": "Mumford",
          "lat": 5.26176,
          "lon": -0.75897
        },
        {
          "name": "Saltpond",
          "lat": 5.20913,
          "lon": -1.06058
        },
        {
          "name": "Swedru",
          "lat": 5.53711,
          "lon": -0.69984
        },
        {
          "name": "Winneba",
          "lat": 5.35113,
          "lon": -0.62313
        }
      ]
    },
    {
      "name": "Eastern",
      "stateCode": "EP",
      "lat": 6.5,
      "lon": -0.5,
      "cities": [
        {
          "name": "Aburi",
          "lat": 5.84802,
          "lon": -0.17449
        },
        {
          "name": "Akim Oda",
          "lat": 5.92665,
          "lon": -0.98577
        },
        {
          "name": "Akim Swedru",
          "lat": 5.8938,
          "lon": -1.01636
        },
        {
          "name": "Akropong",
          "lat": 5.97462,
          "lon": -0.08542
        },
        {
          "name": "Akwatia",
          "lat": 6.04024,
          "lon": -0.80876
        },
        {
          "name": "Asamankese",
          "lat": 5.86006,
          "lon": -0.6635
        },
        {
          "name": "Begoro",
          "lat": 6.38706,
          "lon": -0.37738
        },
        {
          "name": "Kibi",
          "lat": 6.16494,
          "lon": -0.55376
        },
        {
          "name": "Koforidua",
          "lat": 6.09408,
          "lon": -0.25913
        },
        {
          "name": "Mpraeso",
          "lat": 6.59321,
          "lon": -0.73462
        },
        {
          "name": "Nsawam",
          "lat": 5.80893,
          "lon": -0.35026
        },
        {
          "name": "Suhum",
          "lat": 6.04089,
          "lon": -0.45004
        }
      ]
    },
    {
      "name": "Greater Accra",
      "stateCode": "AA",
      "lat": 5.8142836,
      "lon": 0.0746767,
      "cities": [
        {
          "name": "Accra",
          "lat": 5.55602,
          "lon": -0.1969
        },
        {
          "name": "Atsiaman",
          "lat": 5.69775,
          "lon": -0.32824
        },
        {
          "name": "Dome",
          "lat": 5.65003,
          "lon": -0.2361
        },
        {
          "name": "Gbawe",
          "lat": 5.57692,
          "lon": -0.31038
        },
        {
          "name": "Medina Estates",
          "lat": 5.6658,
          "lon": -0.16307
        },
        {
          "name": "Nungua",
          "lat": 5.60105,
          "lon": -0.07713
        },
        {
          "name": "Tema",
          "lat": 5.6698,
          "lon": -0.01657
        },
        {
          "name": "Teshi Old Town",
          "lat": 5.58365,
          "lon": -0.10722
        }
      ]
    },
    {
      "name": "North East",
      "stateCode": "NE",
      "lat": 10.516667,
      "lon": -0.366667,
      "cities": [
        {
          "name": "Bunkpurugu-Nyakpanduri",
          "lat": 10.4660917,
          "lon": -0.2271195
        },
        {
          "name": "Chereponi",
          "lat": 10.1382772,
          "lon": 0.2824258
        },
        {
          "name": "East Mamprusi",
          "lat": 10.4293186,
          "lon": -0.5307885
        },
        {
          "name": "Mamprugu-Moagduri",
          "lat": 10.2329,
          "lon": -1.2836
        },
        {
          "name": "West Mamprusi",
          "lat": 10.2990606,
          "lon": -1.367501
        },
        {
          "name": "Yunyoo-Nasuan",
          "lat": 10.484,
          "lon": -0.009
        }
      ]
    },
    {
      "name": "Northern",
      "stateCode": "NP",
      "lat": 9.5,
      "lon": -1,
      "cities": [
        {
          "name": "Kpandae",
          "lat": 8.46885,
          "lon": -0.01127
        },
        {
          "name": "Salaga",
          "lat": 8.55083,
          "lon": -0.51875
        },
        {
          "name": "Savelugu",
          "lat": 9.62441,
          "lon": -0.8253
        },
        {
          "name": "Tamale",
          "lat": 9.40079,
          "lon": -0.8393
        },
        {
          "name": "Yendi",
          "lat": 9.44272,
          "lon": -0.00991
        }
      ]
    },
    {
      "name": "Oti",
      "stateCode": "OT",
      "lat": 7.9,
      "lon": 0.3,
      "cities": [
        {
          "name": "Biakoye",
          "lat": 7.1169869,
          "lon": 0.323243
        },
        {
          "name": "Jasikan",
          "lat": 7.4094088,
          "lon": 0.443015
        },
        {
          "name": "Kadjebi",
          "lat": 7.5263192,
          "lon": 0.4670477
        },
        {
          "name": "Krachi East",
          "lat": 7.7719698,
          "lon": -0.0776376
        },
        {
          "name": "Krachi Nchumuru",
          "lat": 8.148498,
          "lon": -0.1634988
        },
        {
          "name": "Krachi West",
          "lat": 7.9828216,
          "lon": -0.3488627
        },
        {
          "name": "Nkwanta North",
          "lat": 8.3518076,
          "lon": 0.1221762
        },
        {
          "name": "Nkwanta South",
          "lat": 8.2593134,
          "lon": 0.5018519
        }
      ]
    },
    {
      "name": "Savannah",
      "stateCode": "SV",
      "lat": 9.083333,
      "lon": -1.816667,
      "cities": [
        {
          "name": "Bole",
          "lat": 9.0299664,
          "lon": -2.506943
        },
        {
          "name": "Central Gonja",
          "lat": 8.9278432,
          "lon": -1.9536972
        },
        {
          "name": "East Gonja",
          "lat": 8.725684,
          "lon": -1.0713579
        },
        {
          "name": "North East Gonja",
          "lat": 9.1174669,
          "lon": -0.5557936
        },
        {
          "name": "North Gonja",
          "lat": 9.5413085,
          "lon": -1.3976692
        },
        {
          "name": "Sawla-Tuna-Kalba",
          "lat": 9.3911457,
          "lon": -2.7061166
        },
        {
          "name": "West Gonja",
          "lat": 9.5751317,
          "lon": -2.2644041
        }
      ]
    },
    {
      "name": "Upper East",
      "stateCode": "UE",
      "lat": 10.7082499,
      "lon": -0.9820668,
      "cities": [
        {
          "name": "Bawku",
          "lat": 11.0616,
          "lon": -0.24169
        },
        {
          "name": "Bolgatanga",
          "lat": 10.78556,
          "lon": -0.85139
        },
        {
          "name": "Navrongo",
          "lat": 10.89557,
          "lon": -1.0921
        }
      ]
    },
    {
      "name": "Upper West",
      "stateCode": "UW",
      "lat": 10.2529757,
      "lon": -2.1450245,
      "cities": [
        {
          "name": "Wa",
          "lat": 10.06069,
          "lon": -2.50192
        }
      ]
    },
    {
      "name": "Volta",
      "stateCode": "TV",
      "lat": 6.5781373,
      "lon": 0.4502368,
      "cities": [
        {
          "name": "Aflao",
          "lat": 6.11982,
          "lon": 1.19012
        },
        {
          "name": "Anloga",
          "lat": 5.79473,
          "lon": 0.89728
        },
        {
          "name": "Ho",
          "lat": 6.60084,
          "lon": 0.4713
        },
        {
          "name": "Hohoe",
          "lat": 7.15181,
          "lon": 0.47362
        },
        {
          "name": "Keta",
          "lat": 5.91793,
          "lon": 0.98789
        },
        {
          "name": "Kete Krachi",
          "lat": 7.79391,
          "lon": -0.0498
        },
        {
          "name": "Kpandu",
          "lat": 6.99536,
          "lon": 0.29306
        }
      ]
    },
    {
      "name": "Western",
      "stateCode": "WP",
      "lat": 5.5,
      "lon": -2.5,
      "cities": [
        {
          "name": "Aboso",
          "lat": 5.36073,
          "lon": -1.94856
        },
        {
          "name": "Axim",
          "lat": 4.86641,
          "lon": -2.24181
        },
        {
          "name": "Bibiani",
          "lat": 6.46346,
          "lon": -2.31938
        },
        {
          "name": "Prestea",
          "lat": 5.43385,
          "lon": -2.14295
        },
        {
          "name": "Sekondi-Takoradi",
          "lat": 4.92678,
          "lon": -1.75773
        },
        {
          "name": "Shama Junction",
          "lat": 5.01806,
          "lon": -1.66437
        },
        {
          "name": "Takoradi",
          "lat": 4.89816,
          "lon": -1.76029
        },
        {
          "name": "Tarkwa",
          "lat": 5.30383,
          "lon": -1.98956
        }
      ]
    },
    {
      "name": "Western North",
      "stateCode": "WN",
      "lat": 6.3,
      "lon": -2.8,
      "cities": [
        {
          "name": "Aowin",
          "lat": 5.7530928,
          "lon": -3.0751887
        },
        {
          "name": "Bia East",
          "lat": 6.768604,
          "lon": -3.3330241
        },
        {
          "name": "Bia West",
          "lat": 6.768604,
          "lon": -3.3330241
        },
        {
          "name": "Bibiani-Anhwiaso-Bekwai",
          "lat": 6.3021004,
          "lon": -2.3567507
        },
        {
          "name": "Bodi",
          "lat": 6.2224091,
          "lon": -2.7661515
        },
        {
          "name": "Juaboso",
          "lat": 6.3333157,
          "lon": -2.8420614
        },
        {
          "name": "Sefwi-Akontombra",
          "lat": 6.0428548,
          "lon": -2.8813362
        },
        {
          "name": "Sefwi-Wiawso",
          "lat": 6.2196567,
          "lon": -2.5005915
        },
        {
          "name": "Suaman",
          "lat": 5.7530928,
          "lon": -3.0751887
        }
      ]
    }
  ]
}