{
  "iso2": "IE",
  "name": "Ireland",
  "nativeName": "Ireland",
  "lat": 53,
  "lon": -8,
  "states": [
    {
      "name": "Carlow",
      "stateCode": "CW",
      "lat": 52.7232217,
      "lon": -6.8108295,
      "cities": []
    },
    {
      "name": "Cavan",
      "stateCode": "CN",
      "lat": 53.9765424,
      "lon": -7.2996623,
      "cities": []
    },
    {
      "name": "Clare",
      "stateCode": "CE",
      "lat": 43.04664,
      "lon": -87.899581,
      "cities": []
    },
    {
      "name": "Connacht",
      "stateCode": "C",
      "lat": 53.8376243,
      "lon": -8.9584481,
      "cities": [
        {
          "name": "Athenry",
          "lat": 53.29639,
          "lon": -8.74306
        },
        {
          "name": "Ballaghaderreen",
          "lat": 53.9,
          "lon": -8.58333
        },
        {
          "name": "Ballina",
          "lat": 54.11667,
          "lon": -9.16667
        },
        {
          "name": "Ballinasloe",
          "lat": 53.3275,
          "lon": -8.21944
        },
        {
          "name": "Ballinrobe",
          "lat": 53.63333,
          "lon": -9.23333
        },
        {
          "name": "Ballisodare",
          "lat": 54.2111,
          "lon": -8.50865
        },
        {
          "name": "Ballyhaunis",
          "lat": 53.76667,
          "lon": -8.76667
        },
        {
          "name": "Ballymote",
          "lat": 54.08333,
          "lon": -8.51667
        },
        {
          "name": "Bearna",
          "lat": 53.25194,
          "lon": -9.14972
        },
        {
          "name": "Belmullet",
          "lat": 54.225,
          "lon": -9.99083
        },
        {
          "name": "Boyle",
          "lat": 53.96667,
          "lon": -8.3
        },
        {
          "name": "Carrick-on-Shannon",
          "lat": 53.94694,
          "lon": -8.09
        },
        {
          "name": "Castlebar",
          "lat": 53.85,
          "lon": -9.3
        },
        {
          "name": "Castlerea",
          "lat": 53.76667,
          "lon": -8.5
        },
        {
          "name": "Claregalway",
          "lat": 53.33861,
          "lon": -8.945
        },
        {
          "name": "Claremorris",
          "lat": 53.71667,
          "lon": -9
        },
        {
          "name": "Clifden",
          "lat": 53.48907,
          "lon": -10.0191
        },
        {
          "name": "Collooney",
          "lat": 54.18333,
          "lon": -8.5
        },
        {
          "name": "County Galway",
          "lat": 53.33333,
          "lon": -9
        },
        {
          "name": "County Leitrim",
          "lat": 54.11667,
          "lon": -8
        },
        {
          "name": "Crossmolina",
          "lat": 54.1,
          "lon": -9.31667
        },
        {
          "name": "Foxford",
          "lat": 53.9807,
          "lon": -9.11551
        },
        {
          "name": "Gaillimh",
          "lat": 53.27194,
          "lon": -9.04889
        },
        {
          "name": "Galway City",
          "lat": 53.2877,
          "lon": -9.05004
        },
        {
          "name": "Gort",
          "lat": 53.06639,
          "lon": -8.81667
        },
        {
          "name": "Inishcrone",
          "lat": 54.21591,
          "lon": -9.09197
        },
        {
          "name": "Kiltamagh",
          "lat": 53.85,
          "lon": -9
        },
        {
          "name": "Kinlough",
          "lat": 54.45,
          "lon": -8.28333
        },
        {
          "name": "Loughrea",
          "lat": 53.19694,
          "lon": -8.56694
        },
        {
          "name": "Manorhamilton",
          "lat": 54.30639,
          "lon": -8.17611
        },
        {
          "name": "Mayo County",
          "lat": 53.9,
          "lon": -9.25
        },
        {
          "name": "Moycullen",
          "lat": 53.33783,
          "lon": -9.18002
        },
        {
          "name": "Oranmore",
          "lat": 53.26833,
          "lon": -8.92
        },
        {
          "name": "Oughterard",
          "lat": 53.41667,
          "lon": -9.33333
        },
        {
          "name": "Portumna",
          "lat": 53.08917,
          "lon": -8.21889
        },
        {
          "name": "Roscommon",
          "lat": 53.75,
          "lon": -8.25
        },
        {
          "name": "Sligo",
          "lat": 54.25,
          "lon": -8.66667
        },
        {
          "name": "Strandhill",
          "lat": 54.27194,
          "lon": -8.59333
        },
        {
          "name": "Swinford",
          "lat": 53.95,
          "lon": -8.95
        },
        {
          "name": "Tobercurry",
          "lat": 54.05,
          "lon": -8.73333
        },
        {
          "name": "Tuam",
          "lat": 53.51667,
          "lon": -8.85
        },
        {
          "name": "Westport",
          "lat": 53.8,
          "lon": -9.51667
        }
      ]
    },
    {
      "name": "Cork",
      "stateCode": "CO",
      "lat": 51.8985143,
      "lon": -8.4756035,
      "cities": []
    },
    {
      "name": "Donegal",
      "stateCode": "DL",
      "lat": 54.6548993,
      "lon": -8.1040967,
      "cities": []
    },
    {
      "name": "Dublin",
      "stateCode": "D",
      "lat": 53.3498053,
      "lon": -6.2603097,
      "cities": []
    },
    {
      "name": "Galway",
      "stateCode": "G",
      "lat": 53.3564509,
      "lon": -8.8534113,
      "cities": []
    },
    {
      "name": "Kerry",
      "stateCode": "KY",
      "lat": 52.1544607,
      "lon": -9.5668633,
      "cities": []
    },
    {
      "name": "Kildare",
      "stateCode": "KE",
      "lat": 53.2120434,
      "lon": -6.8194708,
      "cities": []
    },
    {
      "name": "Kilkenny",
      "stateCode": "KK",
      "lat": 52.5776957,
      "lon": -7.218002,
      "cities": []
    },
    {
      "name": "Laois",
      "stateCode": "LS",
      "lat": 52.994295,
      "lon": -7.3323007,
      "cities": []
    },
    {
      "name": "Leinster",
      "stateCode": "L",
      "lat": 53.3271538,
      "lon": -7.5140841,
      "cities": [
        {
          "name": "Abbeyleix",
          "lat": 52.91331,
          "lon": -7.34456
        },
        {
          "name": "An Iarmhí",
          "lat": 53.5,
          "lon": -7.5
        },
        {
          "name": "An Longfort",
          "lat": 53.66667,
          "lon": -7.75
        },
        {
          "name": "An Mhí",
          "lat": 53.66667,
          "lon": -6.66667
        },
        {
          "name": "An Muileann gCearr",
          "lat": 53.53333,
          "lon": -7.35
        },
        {
          "name": "An Ros",
          "lat": 53.52424,
          "lon": -6.10497
        },
        {
          "name": "Ardee",
          "lat": 53.85972,
          "lon": -6.54056
        },
        {
          "name": "Arklow",
          "lat": 52.79306,
          "lon": -6.14139
        },
        {
          "name": "Artane",
          "lat": 53.38712,
          "lon": -6.2138
        },
        {
          "name": "Ashbourne",
          "lat": 53.51163,
          "lon": -6.39821
        },
        {
          "name": "Ashford",
          "lat": 53.00833,
          "lon": -6.11139
        },
        {
          "name": "Athboy",
          "lat": 53.62327,
          "lon": -6.91434
        },
        {
          "name": "Athgarvan",
          "lat": 53.15229,
          "lon": -6.78173
        },
        {
          "name": "Athlone",
          "lat": 53.43333,
          "lon": -7.95
        },
        {
          "name": "Athy",
          "lat": 52.99139,
          "lon": -6.98028
        },
        {
          "name": "Aughrim",
          "lat": 52.85333,
          "lon": -6.3275
        },
        {
          "name": "Bagenalstown",
          "lat": 52.70031,
          "lon": -6.96181
        },
        {
          "name": "Balally",
          "lat": 53.27504,
          "lon": -6.23594
        },
        {
          "name": "Balbriggan",
          "lat": 53.60846,
          "lon": -6.1831
        },
        {
          "name": "Baldoyle",
          "lat": 53.39972,
          "lon": -6.12583
        },
        {
          "name": "Ballinroad",
          "lat": 52.51789,
          "lon": -6.40619
        },
        {
          "name": "Ballinteer",
          "lat": 53.27409,
          "lon": -6.25397
        },
        {
          "name": "Ballivor",
          "lat": 53.53167,
          "lon": -6.96111
        },
        {
          "name": "Ballyboden",
          "lat": 53.28056,
          "lon": -6.31639
        },
        {
          "name": "Ballyfermot",
          "lat": 53.34283,
          "lon": -6.3548
        },
        {
          "name": "Ballygerry",
          "lat": 52.24917,
          "lon": -6.35739
        },
        {
          "name": "Ballylinan",
          "lat": 52.94497,
          "lon": -7.04073
        },
        {
          "name": "Ballymahon",
          "lat": 53.56667,
          "lon": -7.76667
        },
        {
          "name": "Ballymun",
          "lat": 53.39807,
          "lon": -6.26693
        },
        {
          "name": "Ballyragget",
          "lat": 52.78889,
          "lon": -7.33028
        },
        {
          "name": "Balrothery",
          "lat": 53.58828,
          "lon": -6.18728
        },
        {
          "name": "Baltinglass",
          "lat": 52.93722,
          "lon": -6.70917
        },
        {
          "name": "Banagher",
          "lat": 53.18861,
          "lon": -7.98667
        },
        {
          "name": "Bayside",
          "lat": 53.38895,
          "lon": -6.14041
        },
        {
          "name": "Beaumont",
          "lat": 53.38721,
          "lon": -6.22713
        },
        {
          "name": "Birr",
          "lat": 53.09139,
          "lon": -7.91333
        },
        {
          "name": "Blackrock",
          "lat": 53.3015,
          "lon": -6.1778
        },
        {
          "name": "Blanchardstown",
          "lat": 53.38806,
          "lon": -6.37556
        },
        {
          "name": "Blessington",
          "lat": 53.17,
          "lon": -6.5325
        },
        {
          "name": "Bonnybrook",
          "lat": 53.39835,
          "lon": -6.20749
        },
        {
          "name": "Booterstown",
          "lat": 53.30447,
          "lon": -6.19985
        },
        {
          "name": "Bray",
          "lat": 53.20278,
          "lon": -6.09833
        },
        {
          "name": "Bunclody",
          "lat": 52.6553,
          "lon": -6.65359
        },
        {
          "name": "Cabinteely",
          "lat": 53.26973,
          "lon": -6.16058
        },
        {
          "name": "Cabra",
          "lat": 53.36694,
          "lon": -6.29444
        },
        {
          "name": "Callan",
          "lat": 52.545,
          "lon": -7.39111
        },
        {
          "name": "Carlingford",
          "lat": 54.04,
          "lon": -6.18833
        },
        {
          "name": "Carlow",
          "lat": 52.84083,
          "lon": -6.92611
        },
        {
          "name": "Carnew",
          "lat": 52.70806,
          "lon": -6.49444
        },
        {
          "name": "Castlebellingham",
          "lat": 53.90083,
          "lon": -6.39028
        },
        {
          "name": "Castlebridge",
          "lat": 52.38639,
          "lon": -6.44944
        },
        {
          "name": "Castlecomer",
          "lat": 52.80611,
          "lon": -7.21056
        },
        {
          "name": "Castledermot",
          "lat": 52.90889,
          "lon": -6.84222
        },
        {
          "name": "Castleknock",
          "lat": 53.37483,
          "lon": -6.36336
        },
        {
          "name": "Castlepollard",
          "lat": 53.67935,
          "lon": -7.29736
        },
        {
          "name": "Castletown",
          "lat": 52.72306,
          "lon": -6.18944
        },
        {
          "name": "Celbridge",
          "lat": 53.34165,
          "lon": -6.54419
        },
        {
          "name": "Chapelizod",
          "lat": 53.34846,
          "lon": -6.34301
        },
        {
          "name": "Charlesland",
          "lat": 53.12771,
          "lon": -6.06347
        },
        {
          "name": "Cherry Orchard",
          "lat": 53.33605,
          "lon": -6.37799
        },
        {
          "name": "Cherryville",
          "lat": 53.15694,
          "lon": -6.96667
        },
        {
          "name": "Clane",
          "lat": 53.29139,
          "lon": -6.68917
        },
        {
          "name": "Clara",
          "lat": 53.3425,
          "lon": -7.61389
        },
        {
          "name": "Clogherhead",
          "lat": 53.79361,
          "lon": -6.2375
        },
        {
          "name": "Clondalkin",
          "lat": 53.32444,
          "lon": -6.39722
        },
        {
          "name": "Clonskeagh",
          "lat": 53.31467,
          "lon": -6.23148
        },
        {
          "name": "Confey",
          "lat": 53.37923,
          "lon": -6.49052
        },
        {
          "name": "Coolock",
          "lat": 53.3887,
          "lon": -6.19998
        },
        {
          "name": "County Carlow",
          "lat": 52.66667,
          "lon": -6.83333
        },
        {
          "name": "Courtown",
          "lat": 52.64424,
          "lon": -6.22899
        },
        {
          "name": "Crumlin",
          "lat": 53.32154,
          "lon": -6.31439
        },
        {
          "name": "Daingean",
          "lat": 53.29611,
          "lon": -7.28944
        },
        {
          "name": "Dalkey",
          "lat": 53.27833,
          "lon": -6.10028
        },
        {
          "name": "Darndale",
          "lat": 53.39948,
          "lon": -6.18886
        },
        {
          "name": "Derrinturn",
          "lat": 53.34167,
          "lon": -6.94111
        },
        {
          "name": "Dollymount",
          "lat": 53.36489,
          "lon": -6.18032
        },
        {
          "name": "Donabate",
          "lat": 53.48722,
          "lon": -6.15194
        },
        {
          "name": "Donaghmede",
          "lat": 53.39845,
          "lon": -6.16179
        },
        {
          "name": "Donnybrook",
          "lat": 53.31375,
          "lon": -6.22274
        },
        {
          "name": "Donnycarney",
          "lat": 53.3735,
          "lon": -6.20976
        },
        {
          "name": "Drogheda",
          "lat": 53.71889,
          "lon": -6.34778
        },
        {
          "name": "Droichead Nua",
          "lat": 53.18194,
          "lon": -6.79667
        },
        {
          "name": "Dromiskin",
          "lat": 53.92538,
          "lon": -6.40292
        },
        {
          "name": "Drumcondra",
          "lat": 53.37058,
          "lon": -6.25298
        },
        {
          "name": "Dublin",
          "lat": 53.33306,
          "lon": -6.24889
        },
        {
          "name": "Dublin City",
          "lat": 53.35512,
          "lon": -6.24922
        },
        {
          "name": "Duleek",
          "lat": 53.65667,
          "lon": -6.41917
        },
        {
          "name": "Dún Laoghaire",
          "lat": 53.29395,
          "lon": -6.13586
        },
        {
          "name": "Dún Laoghaire-Rathdown",
          "lat": 53.29436,
          "lon": -6.13489
        },
        {
          "name": "Dunboyne",
          "lat": 53.41901,
          "lon": -6.47375
        },
        {
          "name": "Dundalk",
          "lat": 54,
          "lon": -6.41667
        },
        {
          "name": "Dundrum",
          "lat": 53.29067,
          "lon": -6.25714
        },
        {
          "name": "Dunleer",
          "lat": 53.835,
          "lon": -6.39611
        },
        {
          "name": "Dunshaughlin",
          "lat": 53.5125,
          "lon": -6.54
        },
        {
          "name": "Eadestown",
          "lat": 53.20278,
          "lon": -6.57806
        },
        {
          "name": "Edenderry",
          "lat": 53.33948,
          "lon": -7.04752
        },
        {
          "name": "Edgeworthstown",
          "lat": 53.7,
          "lon": -7.61667
        },
        {
          "name": "Enfield",
          "lat": 53.41419,
          "lon": -6.83229
        },
        {
          "name": "Enniscorthy",
          "lat": 52.50083,
          "lon": -6.55778
        },
        {
          "name": "Enniskerry",
          "lat": 53.1925,
          "lon": -6.16917
        },
        {
          "name": "Fairview",
          "lat": 53.36597,
          "lon": -6.23985
        },
        {
          "name": "Ferbane",
          "lat": 53.26944,
          "lon": -7.82694
        },
        {
          "name": "Ferns",
          "lat": 52.58833,
          "lon": -6.49972
        },
        {
          "name": "Fingal County",
          "lat": 53.45909,
          "lon": -6.21942
        },
        {
          "name": "Finglas",
          "lat": 53.38917,
          "lon": -6.29694
        },
        {
          "name": "Firhouse",
          "lat": 53.28167,
          "lon": -6.33917
        },
        {
          "name": "Foxrock",
          "lat": 53.26667,
          "lon": -6.17417
        },
        {
          "name": "Glasnevin",
          "lat": 53.37851,
          "lon": -6.28028
        },
        {
          "name": "Gorey",
          "lat": 52.67472,
          "lon": -6.2925
        },
        {
          "name": "Graiguenamanagh",
          "lat": 52.54028,
          "lon": -6.95472
        },
        {
          "name": "Granard",
          "lat": 53.77928,
          "lon": -7.49429
        },
        {
          "name": "Greenhills",
          "lat": 53.33467,
          "lon": -6.30302
        },
        {
          "name": "Greystones",
          "lat": 53.14083,
          "lon": -6.06306
        },
        {
          "name": "Hartstown",
          "lat": 53.39306,
          "lon": -6.42694
        },
        {
          "name": "Howth",
          "lat": 53.38778,
          "lon": -6.06528
        },
        {
          "name": "Jobstown",
          "lat": 53.27866,
          "lon": -6.40803
        },
        {
          "name": "Johnstown",
          "lat": 53.23833,
          "lon": -6.62222
        },
        {
          "name": "Kells",
          "lat": 53.72639,
          "lon": -6.87917
        },
        {
          "name": "Kentstown",
          "lat": 53.62754,
          "lon": -6.52674
        },
        {
          "name": "Kilbeggan",
          "lat": 53.36944,
          "lon": -7.50333
        },
        {
          "name": "Kilcock",
          "lat": 53.40222,
          "lon": -6.67083
        },
        {
          "name": "Kilcoole",
          "lat": 53.10278,
          "lon": -6.065
        },
        {
          "name": "Kilcullen",
          "lat": 53.13028,
          "lon": -6.74444
        },
        {
          "name": "Kildare",
          "lat": 53.16667,
          "lon": -6.75
        },
        {
          "name": "Kilkenny",
          "lat": 52.58333,
          "lon": -7.25
        },
        {
          "name": "Kill",
          "lat": 53.25139,
          "lon": -6.59167
        },
        {
          "name": "Killester",
          "lat": 53.37322,
          "lon": -6.20431
        },
        {
          "name": "Kilmacanoge",
          "lat": 53.16722,
          "lon": -6.13361
        },
        {
          "name": "Kilpedder",
          "lat": 53.10917,
          "lon": -6.10667
        },
        {
          "name": "Kilquade",
          "lat": 53.09743,
          "lon": -6.08411
        },
        {
          "name": "Kinnegad",
          "lat": 53.45222,
          "lon": -7.09972
        },
        {
          "name": "Kinsealy-Drinan",
          "lat": 53.44395,
          "lon": -6.20334
        },
        {
          "name": "Knocklyon",
          "lat": 53.2803,
          "lon": -6.3313
        },
        {
          "name": "Lanesborough",
          "lat": 53.66667,
          "lon": -7.98333
        },
        {
          "name": "Laois",
          "lat": 53,
          "lon": -7.4
        },
        {
          "name": "Laytown",
          "lat": 53.68194,
          "lon": -6.23917
        },
        {
          "name": "Leixlip",
          "lat": 53.36583,
          "lon": -6.49556
        },
        {
          "name": "Little Bray",
          "lat": 53.20444,
          "lon": -6.12083
        },
        {
          "name": "Loch Garman",
          "lat": 52.5,
          "lon": -6.66667
        },
        {
          "name": "Longford",
          "lat": 53.72536,
          "lon": -7.79823
        },
        {
          "name": "Longwood",
          "lat": 53.45389,
          "lon": -6.92194
        },
        {
          "name": "Loughlinstown",
          "lat": 53.24389,
          "lon": -6.13306
        },
        {
          "name": "Lú",
          "lat": 53.83333,
          "lon": -6.5
        },
        {
          "name": "Lucan",
          "lat": 53.35736,
          "lon": -6.44859
        },
        {
          "name": "Lusk",
          "lat": 53.52743,
          "lon": -6.16423
        },
        {
          "name": "Malahide",
          "lat": 53.45083,
          "lon": -6.15444
        },
        {
          "name": "Marino",
          "lat": 53.37022,
          "lon": -6.23646
        },
        {
          "name": "Maynooth",
          "lat": 53.385,
          "lon": -6.59361
        },
        {
          "name": "Milltown",
          "lat": 53.31301,
          "lon": -6.2453
        },
        {
          "name": "Moate",
          "lat": 53.39389,
          "lon": -7.71722
        },
        {
          "name": "Monasterevin",
          "lat": 53.14056,
          "lon": -7.06639
        },
        {
          "name": "Monkstown",
          "lat": 53.29308,
          "lon": -6.15312
        },
        {
          "name": "Mooncoin",
          "lat": 52.28944,
          "lon": -7.24833
        },
        {
          "name": "Moone",
          "lat": 52.97556,
          "lon": -6.815
        },
        {
          "name": "Mount Merrion",
          "lat": 53.30008,
          "lon": -6.21504
        },
        {
          "name": "Mountmellick",
          "lat": 53.11361,
          "lon": -7.32
        },
        {
          "name": "Mountrath",
          "lat": 52.99889,
          "lon": -7.47278
        },
        {
          "name": "Naas",
          "lat": 53.21583,
          "lon": -6.66694
        },
        {
          "name": "Navan",
          "lat": 53.65278,
          "lon": -6.68139
        },
        {
          "name": "New Ross",
          "lat": 52.39667,
          "lon": -6.93667
        },
        {
          "name": "Newcastle",
          "lat": 53.30111,
          "lon": -6.50222
        },
        {
          "name": "Newtown Trim",
          "lat": 53.55611,
          "lon": -6.77
        },
        {
          "name": "Newtownmountkennedy",
          "lat": 53.09052,
          "lon": -6.11149
        },
        {
          "name": "Old Kilcullen",
          "lat": 53.10639,
          "lon": -6.76528
        },
        {
          "name": "Oldbawn",
          "lat": 53.27556,
          "lon": -6.3675
        },
        {
          "name": "Oldcastle",
          "lat": 53.76648,
          "lon": -7.16284
        },
        {
          "name": "Palmerstown",
          "lat": 53.35019,
          "lon": -6.37778
        },
        {
          "name": "Piltown",
          "lat": 52.35333,
          "lon": -7.34028
        },
        {
          "name": "Portarlington",
          "lat": 53.16222,
          "lon": -7.19111
        },
        {
          "name": "Portlaoise",
          "lat": 53.03441,
          "lon": -7.29979
        },
        {
          "name": "Portmarnock",
          "lat": 53.42306,
          "lon": -6.1375
        },
        {
          "name": "Portraine",
          "lat": 53.49667,
          "lon": -6.11111
        },
        {
          "name": "Prosperous",
          "lat": 53.29028,
          "lon": -6.75389
        },
        {
          "name": "Raheny",
          "lat": 53.38681,
          "lon": -6.18067
        },
        {
          "name": "Rathangan",
          "lat": 53.22139,
          "lon": -6.995
        },
        {
          "name": "Rathcoole",
          "lat": 53.28278,
          "lon": -6.47278
        },
        {
          "name": "Rathdowney",
          "lat": 52.85472,
          "lon": -7.58028
        },
        {
          "name": "Rathdrum",
          "lat": 52.92639,
          "lon": -6.23556
        },
        {
          "name": "Rathgar",
          "lat": 53.31457,
          "lon": -6.275
        },
        {
          "name": "Rathmines",
          "lat": 53.32028,
          "lon": -6.26333
        },
        {
          "name": "Rathnew",
          "lat": 52.99056,
          "lon": -6.08528
        },
        {
          "name": "Rathwire",
          "lat": 53.50767,
          "lon": -7.1351
        },
        {
          "name": "Ratoath",
          "lat": 53.50806,
          "lon": -6.4625
        },
        {
          "name": "Rialto",
          "lat": 53.33625,
          "lon": -6.29718
        },
        {
          "name": "Ringsend",
          "lat": 53.34194,
          "lon": -6.22639
        },
        {
          "name": "Rochfortbridge",
          "lat": 53.41417,
          "lon": -7.29611
        },
        {
          "name": "Rosslare",
          "lat": 52.27583,
          "lon": -6.38444
        },
        {
          "name": "Saggart",
          "lat": 53.28028,
          "lon": -6.44444
        },
        {
          "name": "Sallins",
          "lat": 53.24889,
          "lon": -6.66611
        },
        {
          "name": "Sallynoggin",
          "lat": 53.27917,
          "lon": -6.14058
        },
        {
          "name": "Sandyford",
          "lat": 53.2747,
          "lon": -6.2253
        },
        {
          "name": "Sandymount",
          "lat": 53.32815,
          "lon": -6.22224
        },
        {
          "name": "Shankill",
          "lat": 53.22611,
          "lon": -6.12444
        },
        {
          "name": "Skerries",
          "lat": 53.58278,
          "lon": -6.10833
        },
        {
          "name": "Slane",
          "lat": 53.71,
          "lon": -6.54333
        },
        {
          "name": "South Dublin",
          "lat": 53.28595,
          "lon": -6.37739
        },
        {
          "name": "Stamullin",
          "lat": 53.62889,
          "lon": -6.26833
        },
        {
          "name": "Stradbally",
          "lat": 53.01556,
          "lon": -7.15278
        },
        {
          "name": "Sutton",
          "lat": 53.38947,
          "lon": -6.11059
        },
        {
          "name": "Swords",
          "lat": 53.45972,
          "lon": -6.21806
        },
        {
          "name": "Tallaght",
          "lat": 53.2859,
          "lon": -6.37344
        },
        {
          "name": "Templeogue",
          "lat": 53.29528,
          "lon": -6.30889
        },
        {
          "name": "Terenure",
          "lat": 53.30972,
          "lon": -6.28528
        },
        {
          "name": "Termonfeckin",
          "lat": 53.76333,
          "lon": -6.26778
        },
        {
          "name": "Thomastown",
          "lat": 52.52667,
          "lon": -7.13722
        },
        {
          "name": "Trim",
          "lat": 53.555,
          "lon": -6.79167
        },
        {
          "name": "Tullamore",
          "lat": 53.27389,
          "lon": -7.48889
        },
        {
          "name": "Tullow",
          "lat": 52.80028,
          "lon": -6.73694
        },
        {
          "name": "Tullyallen",
          "lat": 53.73611,
          "lon": -6.42278
        },
        {
          "name": "Uíbh Fhailí",
          "lat": 53.25,
          "lon": -7.5
        },
        {
          "name": "Valleymount",
          "lat": 53.10389,
          "lon": -6.55361
        },
        {
          "name": "Wicklow",
          "lat": 53,
          "lon": -6.41667
        }
      ]
    },
    {
      "name": "Limerick",
      "stateCode": "LK",
      "lat": 52.5090517,
      "lon": -8.7474955,
      "cities": []
    },
    {
      "name": "Longford",
      "stateCode": "LD",
      "lat": 53.7274982,
      "lon": -7.7931527,
      "cities": []
    },
    {
      "name": "Louth",
      "stateCode": "LH",
      "lat": 53.9252324,
      "lon": -6.4889423,
      "cities": []
    },
    {
      "name": "Mayo",
      "stateCode": "MO",
      "lat": 54.0152604,
      "lon": -9.4289369,
      "cities": []
    },
    {
      "name": "Meath",
      "stateCode": "MH",
      "lat": 53.605548,
      "lon": -6.6564169,
      "cities": []
    },
    {
      "name": "Monaghan",
      "stateCode": "MN",
      "lat": 54.2492046,
      "lon": -6.9683132,
      "cities": []
    },
    {
      "name": "Munster",
      "stateCode": "M",
      "lat": 51.9471197,
      "lon": 7.584532,
      "cities": [
        {
          "name": "Abbeyfeale",
          "lat": 52.38139,
          "lon": -9.3025
        },
        {
          "name": "Adare",
          "lat": 52.56194,
          "lon": -8.79556
        },
        {
          "name": "Aghada",
          "lat": 51.83917,
          "lon": -8.21222
        },
        {
          "name": "An Clár",
          "lat": 52.83333,
          "lon": -9
        },
        {
          "name": "Annacotty",
          "lat": 52.66768,
          "lon": -8.53121
        },
        {
          "name": "Ardnacrusha",
          "lat": 52.70908,
          "lon": -8.61431
        },
        {
          "name": "Askeaton",
          "lat": 52.59972,
          "lon": -8.97556
        },
        {
          "name": "Ballina",
          "lat": 52.80778,
          "lon": -8.43556
        },
        {
          "name": "Ballybunnion",
          "lat": 52.51108,
          "lon": -9.67097
        },
        {
          "name": "Bandon",
          "lat": 51.74694,
          "lon": -8.7425
        },
        {
          "name": "Bantry",
          "lat": 51.68333,
          "lon": -9.45
        },
        {
          "name": "Blarney",
          "lat": 51.93333,
          "lon": -8.56667
        },
        {
          "name": "Caherconlish",
          "lat": 52.59361,
          "lon": -8.47028
        },
        {
          "name": "Cahersiveen",
          "lat": 51.94861,
          "lon": -10.22222
        },
        {
          "name": "Cahir",
          "lat": 52.37694,
          "lon": -7.92167
        },
        {
          "name": "Carrick-on-Suir",
          "lat": 52.34917,
          "lon": -7.41306
        },
        {
          "name": "Carrigaline",
          "lat": 51.81167,
          "lon": -8.39861
        },
        {
          "name": "Carrigtwohill",
          "lat": 51.90833,
          "lon": -8.26333
        },
        {
          "name": "Cashel",
          "lat": 52.51583,
          "lon": -7.88556
        },
        {
          "name": "Castleconnell",
          "lat": 52.71389,
          "lon": -8.49944
        },
        {
          "name": "Castleisland",
          "lat": 52.23333,
          "lon": -9.46667
        },
        {
          "name": "Castlemartyr",
          "lat": 51.91028,
          "lon": -8.05389
        },
        {
          "name": "Ciarraí",
          "lat": 52.16667,
          "lon": -9.75
        },
        {
          "name": "Cill Airne",
          "lat": 52.0598,
          "lon": -9.50858
        },
        {
          "name": "Clonakilty",
          "lat": 51.62306,
          "lon": -8.87056
        },
        {
          "name": "Cloyne",
          "lat": 51.86278,
          "lon": -8.12444
        },
        {
          "name": "Cluain Meala",
          "lat": 52.355,
          "lon": -7.70389
        },
        {
          "name": "Cobh",
          "lat": 51.85046,
          "lon": -8.2948
        },
        {
          "name": "Cork",
          "lat": 51.89797,
          "lon": -8.47061
        },
        {
          "name": "Cork City",
          "lat": 51.89755,
          "lon": -8.46773
        },
        {
          "name": "County Cork",
          "lat": 51.96667,
          "lon": -8.58333
        },
        {
          "name": "County Tipperary",
          "lat": 52.66667,
          "lon": -7.83333
        },
        {
          "name": "Croom",
          "lat": 52.51944,
          "lon": -8.71778
        },
        {
          "name": "Crosshaven",
          "lat": 51.79833,
          "lon": -8.30083
        },
        {
          "name": "Derry",
          "lat": 51.58666,
          "lon": -9.05026
        },
        {
          "name": "Dingle",
          "lat": 52.14083,
          "lon": -10.26889
        },
        {
          "name": "Dungarvan",
          "lat": 52.08806,
          "lon": -7.62528
        },
        {
          "name": "Dunmanway",
          "lat": 51.71667,
          "lon": -9.11667
        },
        {
          "name": "Dunmore East",
          "lat": 52.15108,
          "lon": -6.99872
        },
        {
          "name": "Ennis",
          "lat": 52.84361,
          "lon": -8.98639
        },
        {
          "name": "Fermoy",
          "lat": 52.13583,
          "lon": -8.27583
        },
        {
          "name": "Fethard",
          "lat": 52.46722,
          "lon": -7.69111
        },
        {
          "name": "Kanturk",
          "lat": 52.16667,
          "lon": -8.9
        },
        {
          "name": "Kenmare",
          "lat": 51.88333,
          "lon": -9.58333
        },
        {
          "name": "Killaloe",
          "lat": 52.80667,
          "lon": -8.44361
        },
        {
          "name": "Killorglin",
          "lat": 52.1,
          "lon": -9.78333
        },
        {
          "name": "Killumney",
          "lat": 51.87243,
          "lon": -8.64781
        },
        {
          "name": "Kilmallock",
          "lat": 52.4,
          "lon": -8.57722
        },
        {
          "name": "Kilrush",
          "lat": 52.63972,
          "lon": -9.48333
        },
        {
          "name": "Kinsale",
          "lat": 51.7075,
          "lon": -8.53056
        },
        {
          "name": "Listowel",
          "lat": 52.44639,
          "lon": -9.485
        },
        {
          "name": "Luimneach",
          "lat": 52.66472,
          "lon": -8.62306
        },
        {
          "name": "Macroom",
          "lat": 51.90663,
          "lon": -8.96968
        },
        {
          "name": "Mallow",
          "lat": 52.13333,
          "lon": -8.63333
        },
        {
          "name": "Midleton",
          "lat": 51.91526,
          "lon": -8.18052
        },
        {
          "name": "Millstreet",
          "lat": 52.05935,
          "lon": -9.06031
        },
        {
          "name": "Mitchelstown",
          "lat": 52.26583,
          "lon": -8.26806
        },
        {
          "name": "Moroe",
          "lat": 52.65111,
          "lon": -8.39611
        },
        {
          "name": "Moyross",
          "lat": 52.68198,
          "lon": -8.63955
        },
        {
          "name": "Nenagh",
          "lat": 52.86194,
          "lon": -8.19667
        },
        {
          "name": "Nenagh Bridge",
          "lat": 52.88167,
          "lon": -8.19583
        },
        {
          "name": "Newcastle West",
          "lat": 52.44917,
          "lon": -9.06111
        },
        {
          "name": "Newmarket on Fergus",
          "lat": 52.76,
          "lon": -8.89556
        },
        {
          "name": "Newport",
          "lat": 52.71111,
          "lon": -8.40972
        },
        {
          "name": "Passage West",
          "lat": 51.87389,
          "lon": -8.34444
        },
        {
          "name": "Portlaw",
          "lat": 52.28833,
          "lon": -7.32056
        },
        {
          "name": "Ráth Luirc",
          "lat": 52.35,
          "lon": -8.68333
        },
        {
          "name": "Rathcormac",
          "lat": 52.07694,
          "lon": -8.28194
        },
        {
          "name": "Rathkeale",
          "lat": 52.52444,
          "lon": -8.93806
        },
        {
          "name": "Roscrea",
          "lat": 52.95111,
          "lon": -7.80167
        },
        {
          "name": "Shannon",
          "lat": 52.70389,
          "lon": -8.86417
        },
        {
          "name": "Sixmilebridge",
          "lat": 52.74139,
          "lon": -8.77417
        },
        {
          "name": "Skibbereen",
          "lat": 51.55,
          "lon": -9.26667
        },
        {
          "name": "Templemore",
          "lat": 52.79472,
          "lon": -7.83389
        },
        {
          "name": "Thurles",
          "lat": 52.68194,
          "lon": -7.80222
        },
        {
          "name": "Tipperary",
          "lat": 52.47333,
          "lon": -8.15583
        },
        {
          "name": "Tower",
          "lat": 51.92599,
          "lon": -8.60747
        },
        {
          "name": "Trá Mhór",
          "lat": 52.16235,
          "lon": -7.15244
        },
        {
          "name": "Tralee",
          "lat": 52.27042,
          "lon": -9.70264
        },
        {
          "name": "Waterford",
          "lat": 52.25833,
          "lon": -7.11194
        },
        {
          "name": "Watergrasshill",
          "lat": 52.01139,
          "lon": -8.34417
        },
        {
          "name": "Whitegate",
          "lat": 51.83056,
          "lon": -8.22972
        },
        {
          "name": "Youghal",
          "lat": 51.95,
          "lon": -7.85056
        }
      ]
    },
    {
      "name": "Offaly",
      "stateCode": "OY",
      "lat": 53.2356871,
      "lon": -7.7122229,
      "cities": []
    },
    {
      "name": "Roscommon",
      "stateCode": "RN",
      "lat": 53.7592604,
      "lon": -8.2681621,
      "cities": []
    },
    {
      "name": "Sligo",
      "stateCode": "SO",
      "lat": 54.1553277,
      "lon": -8.6064532,
      "cities": []
    },
    {
      "name": "Tipperary",
      "stateCode": "TA",
      "lat": 52.4737894,
      "lon": -8.1618514,
      "cities": []
    },
    {
      "name": "Ulster",
      "stateCode": "U",
      "lat": 54.7616555,
      "lon": -6.9612273,
      "cities": [
        {
          "name": "An Cabhán",
          "lat": 53.91667,
          "lon": -7.25
        },
        {
          "name": "Bailieborough",
          "lat": 53.91667,
          "lon": -6.96667
        },
        {
          "name": "Ballybofey",
          "lat": 54.8,
          "lon": -7.78333
        },
        {
          "name": "Ballyconnell",
          "lat": 54.11667,
          "lon": -7.58333
        },
        {
          "name": "Ballyjamesduff",
          "lat": 53.86528,
          "lon": -7.20278
        },
        {
          "name": "Ballyshannon",
          "lat": 54.5,
          "lon": -8.18333
        },
        {
          "name": "Belturbet",
          "lat": 54.1,
          "lon": -7.45
        },
        {
          "name": "Buncrana",
          "lat": 55.13333,
          "lon": -7.45
        },
        {
          "name": "Bundoran",
          "lat": 54.47782,
          "lon": -8.28094
        },
        {
          "name": "Carndonagh",
          "lat": 55.25,
          "lon": -7.26667
        },
        {
          "name": "Carrickmacross",
          "lat": 53.97278,
          "lon": -6.71889
        },
        {
          "name": "Castleblayney",
          "lat": 54.11667,
          "lon": -6.73333
        },
        {
          "name": "Cavan",
          "lat": 53.99083,
          "lon": -7.36056
        },
        {
          "name": "Clones",
          "lat": 54.18333,
          "lon": -7.23333
        },
        {
          "name": "Convoy",
          "lat": 54.86083,
          "lon": -7.66556
        },
        {
          "name": "Cootehill",
          "lat": 54.0725,
          "lon": -7.08194
        },
        {
          "name": "County Donegal",
          "lat": 54.91667,
          "lon": -8
        },
        {
          "name": "County Monaghan",
          "lat": 54.25,
          "lon": -7
        },
        {
          "name": "Derrybeg",
          "lat": 55.08333,
          "lon": -8.28944
        },
        {
          "name": "Donegal",
          "lat": 54.65378,
          "lon": -8.11134
        },
        {
          "name": "Dungloe",
          "lat": 54.95111,
          "lon": -8.35917
        },
        {
          "name": "Dunlewy",
          "lat": 55.01667,
          "lon": -8.1
        },
        {
          "name": "Gweedore",
          "lat": 55.05028,
          "lon": -8.23194
        },
        {
          "name": "Killybegs",
          "lat": 54.63333,
          "lon": -8.45
        },
        {
          "name": "Kingscourt",
          "lat": 53.90806,
          "lon": -6.80556
        },
        {
          "name": "Leifear",
          "lat": 54.83194,
          "lon": -7.48361
        },
        {
          "name": "Letterkenny",
          "lat": 54.95,
          "lon": -7.73333
        },
        {
          "name": "Monaghan",
          "lat": 54.25,
          "lon": -6.96667
        },
        {
          "name": "Moville",
          "lat": 55.19153,
          "lon": -7.03873
        },
        {
          "name": "Muff",
          "lat": 55.06667,
          "lon": -7.26667
        },
        {
          "name": "Mullagh",
          "lat": 53.81306,
          "lon": -6.95139
        },
        {
          "name": "Newtown Cunningham",
          "lat": 54.99639,
          "lon": -7.51917
        },
        {
          "name": "Ramelton",
          "lat": 55.03673,
          "lon": -7.64923
        },
        {
          "name": "Raphoe",
          "lat": 54.87472,
          "lon": -7.59833
        },
        {
          "name": "Virginia",
          "lat": 53.83389,
          "lon": -7.07556
        }
      ]
    },
    {
      "name": "Waterford",
      "stateCode": "WD",
      "lat": 52.1943549,
      "lon": -7.6227512,
      "cities": []
    },
    {
      "name": "Westmeath",
      "stateCode": "WH",
      "lat": 53.5345308,
      "lon": -7.4653217,
      "cities": []
    },
    {
      "name": "Wexford",
      "stateCode": "WX",
      "lat": 52.4793603,
      "lon": -6.5839913,
      "cities": []
    },
    {
      "name": "Wicklow",
      "stateCode": "WW",
      "lat": 52.9862313,
      "lon": -6.3672543,
      "cities": []
    }
  ]
}