{
  "iso2": "KM",
  "name": "Comoros",
  "nativeName": "Comoros",
  "lat": -12.16666666,
  "lon": 44.25,
  "states": [
    {
      "name": "Anjouan",
      "stateCode": "A",
      "lat": -12.2138145,
      "lon": 44.4370606,
      "cities": [
        {
          "name": "Adda-Douéni",
          "lat": -12.2925,
          "lon": 44.49722
        },
        {
          "name": "Antsahé",
          "lat": -12.35639,
          "lon": 44.5225
        },
        {
          "name": "Assimpao",
          "lat": -12.23306,
          "lon": 44.31972
        },
        {
          "name": "Bambao",
          "lat": -12.20325,
          "lon": 44.51638
        },
        {
          "name": "Bandajou",
          "lat": -12.19167,
          "lon": 44.28694
        },
        {
          "name": "Barakani",
          "lat": -12.13861,
          "lon": 44.43026
        },
        {
          "name": "Bimbini",
          "lat": -12.18833,
          "lon": 44.23556
        },
        {
          "name": "Boungouéni",
          "lat": -12.20556,
          "lon": 44.29944
        },
        {
          "name": "Chandra",
          "lat": -12.195,
          "lon": 44.46472
        },
        {
          "name": "Chironkamba",
          "lat": -12.19111,
          "lon": 44.3525
        },
        {
          "name": "Chitrouni",
          "lat": -12.18583,
          "lon": 44.33556
        },
        {
          "name": "Daji",
          "lat": -12.32583,
          "lon": 44.48861
        },
        {
          "name": "Domoni",
          "lat": -12.25694,
          "lon": 44.53194
        },
        {
          "name": "Dziani",
          "lat": -12.18333,
          "lon": 44.48333
        },
        {
          "name": "Hajoho",
          "lat": -12.12434,
          "lon": 44.48881
        },
        {
          "name": "Harembo",
          "lat": -12.15108,
          "lon": 44.49828
        },
        {
          "name": "Kangani",
          "lat": -12.32102,
          "lon": 44.4727
        },
        {
          "name": "Kavani",
          "lat": -12.19194,
          "lon": 44.26944
        },
        {
          "name": "Koki",
          "lat": -12.17139,
          "lon": 44.44167
        },
        {
          "name": "Koni-Djodjo",
          "lat": -12.22972,
          "lon": 44.48167
        },
        {
          "name": "Koni-Ngani",
          "lat": -12.21583,
          "lon": 44.48
        },
        {
          "name": "Kyo",
          "lat": -12.33222,
          "lon": 44.51917
        },
        {
          "name": "Limbi",
          "lat": -12.23944,
          "lon": 44.50528
        },
        {
          "name": "Lingoni",
          "lat": -12.25583,
          "lon": 44.41833
        },
        {
          "name": "Magnassini-Nindri",
          "lat": -12.27806,
          "lon": 44.41583
        },
        {
          "name": "Maraharé",
          "lat": -12.23083,
          "lon": 44.31333
        },
        {
          "name": "Mirontsi",
          "lat": -12.15667,
          "lon": 44.40806
        },
        {
          "name": "Mjamaoué",
          "lat": -12.19361,
          "lon": 44.31
        },
        {
          "name": "Mjimandra",
          "lat": -12.19167,
          "lon": 44.37028
        },
        {
          "name": "Moutsamoudou",
          "lat": -12.16672,
          "lon": 44.39944
        },
        {
          "name": "Moya",
          "lat": -12.30967,
          "lon": 44.43685
        },
        {
          "name": "Mramani",
          "lat": -12.34639,
          "lon": 44.52861
        },
        {
          "name": "Mrémani",
          "lat": -12.30833,
          "lon": 44.49861
        },
        {
          "name": "Ongoni",
          "lat": -12.17028,
          "lon": 44.50694
        },
        {
          "name": "Ouani",
          "lat": -12.13554,
          "lon": 44.42493
        },
        {
          "name": "Ouzini",
          "lat": -12.26722,
          "lon": 44.47972
        },
        {
          "name": "Pajé",
          "lat": -12.16972,
          "lon": 44.38806
        },
        {
          "name": "Patsi",
          "lat": -12.15556,
          "lon": 44.43722
        },
        {
          "name": "Sima",
          "lat": -12.19556,
          "lon": 44.27667
        },
        {
          "name": "Tsimbeo",
          "lat": -12.20583,
          "lon": 44.46472
        },
        {
          "name": "Vouani",
          "lat": -12.24417,
          "lon": 44.37444
        }
      ]
    },
    {
      "name": "Grande Comore",
      "stateCode": "G",
      "lat": -11.7167338,
      "lon": 43.3680788,
      "cities": [
        {
          "name": "Bahani",
          "lat": -11.63972,
          "lon": 43.28417
        },
        {
          "name": "Bambadjani",
          "lat": -11.47861,
          "lon": 43.37722
        },
        {
          "name": "Bouni",
          "lat": -11.48694,
          "lon": 43.38833
        },
        {
          "name": "Chezani",
          "lat": -11.4314,
          "lon": 43.39625
        },
        {
          "name": "Chindini",
          "lat": -11.92328,
          "lon": 43.49109
        },
        {
          "name": "Chouani",
          "lat": -11.8233,
          "lon": 43.29429
        },
        {
          "name": "Dembéni",
          "lat": -11.87361,
          "lon": 43.39778
        },
        {
          "name": "Douniani",
          "lat": -11.42111,
          "lon": 43.28889
        },
        {
          "name": "Dzahadjou",
          "lat": -11.85287,
          "lon": 43.34987
        },
        {
          "name": "Foumbouni",
          "lat": -11.86537,
          "lon": 43.49529
        },
        {
          "name": "Hantsindzi",
          "lat": -11.43178,
          "lon": 43.41102
        },
        {
          "name": "Héroumbili",
          "lat": -11.54389,
          "lon": 43.37972
        },
        {
          "name": "Itsandra",
          "lat": -11.67111,
          "lon": 43.25472
        },
        {
          "name": "Itsandzéni",
          "lat": -11.47278,
          "lon": 43.38444
        },
        {
          "name": "Ivouani",
          "lat": -11.39157,
          "lon": 43.39454
        },
        {
          "name": "Koua",
          "lat": -11.42083,
          "lon": 43.27639
        },
        {
          "name": "Madjeouéni",
          "lat": -11.82167,
          "lon": 43.27806
        },
        {
          "name": "Mandza",
          "lat": -11.41806,
          "lon": 43.29528
        },
        {
          "name": "Mavingouni",
          "lat": -11.71639,
          "lon": 43.2525
        },
        {
          "name": "Mbéni",
          "lat": -11.50139,
          "lon": 43.3775
        },
        {
          "name": "Mitsamiouli",
          "lat": -11.38472,
          "lon": 43.28444
        },
        {
          "name": "Mitsoudjé",
          "lat": -11.81209,
          "lon": 43.28043
        },
        {
          "name": "Mnoungou",
          "lat": -11.51778,
          "lon": 43.37389
        },
        {
          "name": "Mohoro",
          "lat": -11.82701,
          "lon": 43.45436
        },
        {
          "name": "Moroni",
          "lat": -11.70216,
          "lon": 43.25506
        },
        {
          "name": "Mtsamdou",
          "lat": -11.60694,
          "lon": 43.38056
        },
        {
          "name": "Mvouni",
          "lat": -11.71611,
          "lon": 43.26472
        },
        {
          "name": "Nioumamilima",
          "lat": -11.85461,
          "lon": 43.44607
        },
        {
          "name": "Ntsaouéni",
          "lat": -11.46583,
          "lon": 43.26278
        },
        {
          "name": "Ntsoudjini",
          "lat": -11.65972,
          "lon": 43.26139
        },
        {
          "name": "Ouellah",
          "lat": -11.39028,
          "lon": 43.33194
        },
        {
          "name": "Ouhozi",
          "lat": -11.405,
          "lon": 43.28222
        },
        {
          "name": "Ourovéni",
          "lat": -11.91375,
          "lon": 43.49804
        },
        {
          "name": "Oussivo",
          "lat": -11.585,
          "lon": 43.26722
        },
        {
          "name": "Salimani",
          "lat": -11.8115,
          "lon": 43.26823
        },
        {
          "name": "Séléa",
          "lat": -11.78444,
          "lon": 43.26083
        },
        {
          "name": "Singani",
          "lat": -11.84784,
          "lon": 43.31731
        },
        {
          "name": "Tsidjé",
          "lat": -11.69806,
          "lon": 43.26194
        },
        {
          "name": "Vanadjou",
          "lat": -11.6075,
          "lon": 43.27611
        },
        {
          "name": "Vanambouani",
          "lat": -11.61139,
          "lon": 43.25306
        }
      ]
    },
    {
      "name": "Mohéli",
      "stateCode": "M",
      "lat": -12.3377376,
      "lon": 43.7334089,
      "cities": [
        {
          "name": "Djoyézi",
          "lat": -12.30587,
          "lon": 43.77425
        },
        {
          "name": "Fomboni",
          "lat": -12.28759,
          "lon": 43.74344
        },
        {
          "name": "Hoani",
          "lat": -12.25083,
          "lon": 43.67472
        },
        {
          "name": "Mtakoudja",
          "lat": -12.26111,
          "lon": 43.70361
        },
        {
          "name": "Nioumachoua",
          "lat": -12.36139,
          "lon": 43.71528
        },
        {
          "name": "Ouanani",
          "lat": -12.3375,
          "lon": 43.7975
        },
        {
          "name": "Ziroudani",
          "lat": -12.3325,
          "lon": 43.7775
        }
      ]
    }
  ]
}