{
  "iso2": "KZ",
  "name": "Kazakhstan",
  "nativeName": "Kazakhstan",
  "lat": 48,
  "lon": 68,
  "states": [
    {
      "name": "Akmola Region",
      "stateCode": "AKM",
      "lat": 51.916532,
      "lon": 69.4110494,
      "cities": [
        {
          "name": "Akkol",
          "lat": 51.99374,
          "lon": 70.94704
        },
        {
          "name": "Akkol’",
          "lat": 53.29617,
          "lon": 69.59997
        },
        {
          "name": "Aksu",
          "lat": 52.44422,
          "lon": 71.95761
        },
        {
          "name": "Astrakhan",
          "lat": 51.53092,
          "lon": 69.79684
        },
        {
          "name": "Atbasar",
          "lat": 51.80652,
          "lon": 68.35996
        },
        {
          "name": "Balkashino",
          "lat": 52.51779,
          "lon": 68.7516
        },
        {
          "name": "Bestobe",
          "lat": 52.49795,
          "lon": 73.09592
        },
        {
          "name": "Derzhavīnsk",
          "lat": 51.09922,
          "lon": 66.31557
        },
        {
          "name": "Egindiköl",
          "lat": 51.05412,
          "lon": 69.47928
        },
        {
          "name": "Esil",
          "lat": 51.95495,
          "lon": 66.40841
        },
        {
          "name": "Kokshetau",
          "lat": 53.28333,
          "lon": 69.4
        },
        {
          "name": "Krasnogorskiy",
          "lat": 52.2456,
          "lon": 66.52081
        },
        {
          "name": "Makinsk",
          "lat": 52.6329,
          "lon": 70.41911
        },
        {
          "name": "Shantobe",
          "lat": 52.45376,
          "lon": 68.17475
        },
        {
          "name": "Shchuchinsk",
          "lat": 52.93592,
          "lon": 70.18895
        },
        {
          "name": "Shortandy",
          "lat": 51.69946,
          "lon": 70.99457
        },
        {
          "name": "Stepnogorsk",
          "lat": 52.35062,
          "lon": 71.88161
        },
        {
          "name": "Stepnyak",
          "lat": 52.83489,
          "lon": 70.78861
        },
        {
          "name": "Yermentau",
          "lat": 51.62364,
          "lon": 73.10265
        },
        {
          "name": "Zavodskoy",
          "lat": 52.47031,
          "lon": 72.01514
        },
        {
          "name": "Zhaqsy",
          "lat": 51.91058,
          "lon": 67.31665
        },
        {
          "name": "Zholymbet",
          "lat": 51.74211,
          "lon": 71.71245
        }
      ]
    },
    {
      "name": "Aktobe Region",
      "stateCode": "AKT",
      "lat": 48.7797078,
      "lon": 57.9974378,
      "cities": [
        {
          "name": "Aktobe",
          "lat": 50.27969,
          "lon": 57.20718
        },
        {
          "name": "Batamshinskiy",
          "lat": 50.56022,
          "lon": 58.27715
        },
        {
          "name": "Bayganin",
          "lat": 48.68975,
          "lon": 55.87512
        },
        {
          "name": "Embi",
          "lat": 48.82981,
          "lon": 58.15042
        },
        {
          "name": "Kandyagash",
          "lat": 49.46912,
          "lon": 57.41914
        },
        {
          "name": "Khromtau",
          "lat": 50.25117,
          "lon": 58.44003
        },
        {
          "name": "Martuk",
          "lat": 50.74746,
          "lon": 56.50611
        },
        {
          "name": "Shalqar",
          "lat": 47.83333,
          "lon": 59.6
        },
        {
          "name": "Shubarkuduk",
          "lat": 49.14391,
          "lon": 56.48196
        },
        {
          "name": "Shubarshi",
          "lat": 48.58022,
          "lon": 57.18289
        },
        {
          "name": "Temir",
          "lat": 49.14132,
          "lon": 57.12855
        },
        {
          "name": "Yrghyz",
          "lat": 48.61667,
          "lon": 61.26667
        }
      ]
    },
    {
      "name": "Almaty",
      "stateCode": "ALA",
      "lat": 43.2220146,
      "lon": 76.8512485,
      "cities": [
        {
          "name": "Almaty",
          "lat": 43.25667,
          "lon": 76.92861
        }
      ]
    },
    {
      "name": "Almaty Region",
      "stateCode": "ALM",
      "lat": 45.0119227,
      "lon": 78.4229392,
      "cities": [
        {
          "name": "Bakanas",
          "lat": 44.80838,
          "lon": 76.27214
        },
        {
          "name": "Balpyk Bī",
          "lat": 44.90225,
          "lon": 78.23157
        },
        {
          "name": "Burunday",
          "lat": 43.35567,
          "lon": 76.85477
        },
        {
          "name": "Chemolgan",
          "lat": 43.37633,
          "lon": 76.62456
        },
        {
          "name": "Druzhba",
          "lat": 45.25332,
          "lon": 82.48044
        },
        {
          "name": "Esik",
          "lat": 43.3552,
          "lon": 77.45245
        },
        {
          "name": "Kapshagay",
          "lat": 43.86681,
          "lon": 77.06304
        },
        {
          "name": "Kegen",
          "lat": 43.02143,
          "lon": 79.22055
        },
        {
          "name": "Lepsy",
          "lat": 46.235,
          "lon": 78.94556
        },
        {
          "name": "Matay",
          "lat": 45.895,
          "lon": 78.71806
        },
        {
          "name": "Otegen Batyra",
          "lat": 43.41949,
          "lon": 77.0202
        },
        {
          "name": "Pervomayka",
          "lat": 43.37361,
          "lon": 76.94
        },
        {
          "name": "Sarkand",
          "lat": 45.41126,
          "lon": 79.91545
        },
        {
          "name": "Saryozek",
          "lat": 44.36178,
          "lon": 77.97279
        },
        {
          "name": "Taldykorgan",
          "lat": 45.01556,
          "lon": 78.37389
        },
        {
          "name": "Talghar",
          "lat": 43.30348,
          "lon": 77.24085
        },
        {
          "name": "Tekeli",
          "lat": 44.83322,
          "lon": 78.83089
        },
        {
          "name": "Turgen",
          "lat": 43.40056,
          "lon": 77.59333
        },
        {
          "name": "Ülken",
          "lat": 45.21194,
          "lon": 73.97861
        },
        {
          "name": "Ush-Tyube",
          "lat": 45.25201,
          "lon": 77.98007
        },
        {
          "name": "Zharkent",
          "lat": 44.1666,
          "lon": 80.00655
        }
      ]
    },
    {
      "name": "Atyrau Region",
      "stateCode": "ATY",
      "lat": 47.1076188,
      "lon": 51.914133,
      "cities": [
        {
          "name": "Akkol’",
          "lat": 48.77177,
          "lon": 53.1858
        },
        {
          "name": "Atyrau",
          "lat": 47.11667,
          "lon": 51.88333
        },
        {
          "name": "Balykshi",
          "lat": 47.06667,
          "lon": 51.86667
        },
        {
          "name": "Bayshonas",
          "lat": 47.24139,
          "lon": 52.94111
        },
        {
          "name": "Dossor",
          "lat": 47.52722,
          "lon": 52.98111
        },
        {
          "name": "Inderbor",
          "lat": 48.55,
          "lon": 51.78333
        },
        {
          "name": "Makhambet",
          "lat": 47.66667,
          "lon": 51.58333
        },
        {
          "name": "Maloye Ganyushkino",
          "lat": 46.6,
          "lon": 49.26667
        },
        {
          "name": "Maqat",
          "lat": 47.65,
          "lon": 53.31667
        },
        {
          "name": "Miyaly",
          "lat": 48.88504,
          "lon": 53.79194
        },
        {
          "name": "Qaraton",
          "lat": 46.43528,
          "lon": 53.48639
        },
        {
          "name": "Qulsary",
          "lat": 46.95307,
          "lon": 54.01978
        },
        {
          "name": "Shalkar",
          "lat": 48.03333,
          "lon": 48.9
        }
      ]
    },
    {
      "name": "Baikonur",
      "stateCode": "BAY",
      "lat": 45.9645851,
      "lon": 63.3052428,
      "cities": [
        {
          "name": "Baikonur",
          "lat": 45.61667,
          "lon": 63.31667
        }
      ]
    },
    {
      "name": "East Kazakhstan Region",
      "stateCode": "VOS",
      "lat": 48.7062687,
      "lon": 80.7922534,
      "cities": [
        {
          "name": "Altayskiy",
          "lat": 50.24593,
          "lon": 82.36252
        },
        {
          "name": "Aqtoghay",
          "lat": 46.95,
          "lon": 79.66667
        },
        {
          "name": "Asūbulaq",
          "lat": 49.55688,
          "lon": 83.06355
        },
        {
          "name": "Auezov",
          "lat": 49.71003,
          "lon": 81.58018
        },
        {
          "name": "Ayagoz",
          "lat": 47.96447,
          "lon": 80.43437
        },
        {
          "name": "Belogorskīy",
          "lat": 49.47698,
          "lon": 83.14803
        },
        {
          "name": "Belousovka",
          "lat": 50.13287,
          "lon": 82.52481
        },
        {
          "name": "Borodulikha",
          "lat": 50.71841,
          "lon": 80.9295
        },
        {
          "name": "Georgīevka",
          "lat": 49.32671,
          "lon": 81.57373
        },
        {
          "name": "Glubokoye",
          "lat": 50.13887,
          "lon": 82.31114
        },
        {
          "name": "Kurchatov",
          "lat": 50.75617,
          "lon": 78.54188
        },
        {
          "name": "Kurchum",
          "lat": 48.56603,
          "lon": 83.66146
        },
        {
          "name": "Maleyevsk",
          "lat": 49.81441,
          "lon": 84.29102
        },
        {
          "name": "Ognevka",
          "lat": 49.68351,
          "lon": 83.01674
        },
        {
          "name": "Priisk Boko",
          "lat": 49.06028,
          "lon": 81.64528
        },
        {
          "name": "Qaraūyl",
          "lat": 48.94509,
          "lon": 79.25502
        },
        {
          "name": "Ridder",
          "lat": 50.34413,
          "lon": 83.51287
        },
        {
          "name": "Semey",
          "lat": 50.42675,
          "lon": 80.26669
        },
        {
          "name": "Shar",
          "lat": 49.5872,
          "lon": 81.04883
        },
        {
          "name": "Shemonaīkha",
          "lat": 50.62811,
          "lon": 81.91213
        },
        {
          "name": "Suykbulak",
          "lat": 49.70837,
          "lon": 81.04854
        },
        {
          "name": "Tūghyl",
          "lat": 47.72521,
          "lon": 84.20629
        },
        {
          "name": "Urzhar",
          "lat": 47.09302,
          "lon": 81.62939
        },
        {
          "name": "Ust-Kamenogorsk",
          "lat": 49.97143,
          "lon": 82.60586
        },
        {
          "name": "Ūst’-Talovka",
          "lat": 50.54927,
          "lon": 81.84997
        },
        {
          "name": "Zaysan",
          "lat": 47.46657,
          "lon": 84.87144
        },
        {
          "name": "Zhalghyztobe",
          "lat": 49.21094,
          "lon": 81.21596
        },
        {
          "name": "Zhanga Buqtyrma",
          "lat": 49.6295,
          "lon": 83.52475
        },
        {
          "name": "Zhezkent",
          "lat": 50.93112,
          "lon": 81.3615
        },
        {
          "name": "Zyryanovsk",
          "lat": 49.72654,
          "lon": 84.27318
        }
      ]
    },
    {
      "name": "Jambyl Region",
      "stateCode": "ZHA",
      "lat": 44.2220308,
      "lon": 72.3657967,
      "cities": [
        {
          "name": "Aqbaqay",
          "lat": 45,
          "lon": 72.78333
        },
        {
          "name": "Chu",
          "lat": 43.60334,
          "lon": 73.75919
        },
        {
          "name": "Georgiyevka",
          "lat": 43.03882,
          "lon": 74.71287
        },
        {
          "name": "Granitogorsk",
          "lat": 42.744,
          "lon": 73.46848
        },
        {
          "name": "Karatau",
          "lat": 43.17869,
          "lon": 70.46768
        },
        {
          "name": "Khantaū",
          "lat": 44.22744,
          "lon": 73.79555
        },
        {
          "name": "Lugovoy",
          "lat": 42.94197,
          "lon": 72.76098
        },
        {
          "name": "Lugovoye",
          "lat": 42.9101,
          "lon": 72.72066
        },
        {
          "name": "Merke",
          "lat": 42.86976,
          "lon": 73.18463
        },
        {
          "name": "Moyynkum",
          "lat": 44.28461,
          "lon": 72.9392
        },
        {
          "name": "Mynaral",
          "lat": 45.41611,
          "lon": 73.68444
        },
        {
          "name": "Oytal",
          "lat": 42.90573,
          "lon": 73.26972
        },
        {
          "name": "Sarykemer",
          "lat": 43,
          "lon": 71.5
        },
        {
          "name": "Shyghanaq",
          "lat": 44.83056,
          "lon": 70.00194
        },
        {
          "name": "Taraz",
          "lat": 42.9,
          "lon": 71.36667
        },
        {
          "name": "Zhangatas",
          "lat": 43.56222,
          "lon": 69.73428
        }
      ]
    },
    {
      "name": "Karaganda Region",
      "stateCode": "KAR",
      "lat": 47.9022182,
      "lon": 71.7706807,
      "cities": [
        {
          "name": "Abay",
          "lat": 49.63575,
          "lon": 72.86164
        },
        {
          "name": "Abay Qalasy",
          "lat": 49.63333,
          "lon": 72.88333
        },
        {
          "name": "Aksu-Ayuly",
          "lat": 48.76788,
          "lon": 73.67272
        },
        {
          "name": "Aktas",
          "lat": 49.77952,
          "lon": 72.96128
        },
        {
          "name": "Aktau",
          "lat": 48.03333,
          "lon": 72.83333
        },
        {
          "name": "Aktogay",
          "lat": 48.16667,
          "lon": 75.3
        },
        {
          "name": "Aqadyr",
          "lat": 48.26014,
          "lon": 72.85851
        },
        {
          "name": "Aqshataū",
          "lat": 47.98917,
          "lon": 74.0575
        },
        {
          "name": "Aqtoghay Aūdany",
          "lat": 48.5,
          "lon": 74.75
        },
        {
          "name": "Atasū",
          "lat": 48.68659,
          "lon": 71.64469
        },
        {
          "name": "Balqash",
          "lat": 46.84806,
          "lon": 74.995
        },
        {
          "name": "Bukhar-Zhyrau",
          "lat": 49.85658,
          "lon": 73.68118
        },
        {
          "name": "Dolinka",
          "lat": 49.67685,
          "lon": 72.67822
        },
        {
          "name": "Karagandy",
          "lat": 49.80187,
          "lon": 73.10211
        },
        {
          "name": "Kīevka",
          "lat": 50.26212,
          "lon": 71.54839
        },
        {
          "name": "Koktal",
          "lat": 49.65,
          "lon": 73.51667
        },
        {
          "name": "Kushoky",
          "lat": 50.23091,
          "lon": 73.40146
        },
        {
          "name": "Kyzylzhar",
          "lat": 49.98197,
          "lon": 72.60761
        },
        {
          "name": "Moyynty",
          "lat": 47.22111,
          "lon": 73.36694
        },
        {
          "name": "Novodolinskiy",
          "lat": 49.7065,
          "lon": 72.70807
        },
        {
          "name": "Osakarovka",
          "lat": 50.56219,
          "lon": 72.57089
        },
        {
          "name": "Prigorodnoye",
          "lat": 49.69244,
          "lon": 75.58438
        },
        {
          "name": "Priozersk",
          "lat": 46.03106,
          "lon": 73.70247
        },
        {
          "name": "Qarazhal",
          "lat": 48.00627,
          "lon": 70.79607
        },
        {
          "name": "Qarqaraly",
          "lat": 49.41287,
          "lon": 75.47286
        },
        {
          "name": "Saryshaghan",
          "lat": 46.11917,
          "lon": 73.61917
        },
        {
          "name": "Sayaq",
          "lat": 47,
          "lon": 77.26667
        },
        {
          "name": "Shakhan",
          "lat": 49.81958,
          "lon": 72.65407
        },
        {
          "name": "Shakhtinsk",
          "lat": 49.70885,
          "lon": 72.59212
        },
        {
          "name": "Shashūbay",
          "lat": 46.81694,
          "lon": 75.04028
        },
        {
          "name": "Shubarköl",
          "lat": 48.88222,
          "lon": 68.80722
        },
        {
          "name": "Soran",
          "lat": 49.7908,
          "lon": 72.83744
        },
        {
          "name": "Temirtau",
          "lat": 50.05494,
          "lon": 72.96464
        },
        {
          "name": "Tokarevka",
          "lat": 50.11573,
          "lon": 73.16034
        },
        {
          "name": "Verkhniye Kayrakty",
          "lat": 48.68333,
          "lon": 73.28333
        },
        {
          "name": "Zhambyl",
          "lat": 47.20694,
          "lon": 71.39694
        },
        {
          "name": "Zharyk",
          "lat": 48.85692,
          "lon": 72.83598
        },
        {
          "name": "Zhezqazghan",
          "lat": 47.78333,
          "lon": 67.76667
        }
      ]
    },
    {
      "name": "Kostanay Region",
      "stateCode": "KUS",
      "lat": 51.5077096,
      "lon": 64.0479073,
      "cities": [
        {
          "name": "Arkalyk",
          "lat": 50.24915,
          "lon": 66.92027
        },
        {
          "name": "Ayat",
          "lat": 52.83554,
          "lon": 62.52078
        },
        {
          "name": "Borovskoy",
          "lat": 53.7927,
          "lon": 64.18268
        },
        {
          "name": "Dzhetygara",
          "lat": 52.19019,
          "lon": 61.19894
        },
        {
          "name": "Fyodorovka",
          "lat": 53.63809,
          "lon": 62.69653
        },
        {
          "name": "Karasu",
          "lat": 52.65995,
          "lon": 65.48421
        },
        {
          "name": "Komsomolets",
          "lat": 53.75019,
          "lon": 62.0584
        },
        {
          "name": "Kostanay",
          "lat": 53.21435,
          "lon": 63.62463
        },
        {
          "name": "Lisakovsk",
          "lat": 52.54707,
          "lon": 62.49987
        },
        {
          "name": "Ordzhonikidze",
          "lat": 52.44772,
          "lon": 61.74942
        },
        {
          "name": "Qashar",
          "lat": 53.36799,
          "lon": 62.86839
        },
        {
          "name": "Qusmuryn",
          "lat": 52.45107,
          "lon": 64.61977
        },
        {
          "name": "Rudnyy",
          "lat": 52.9729,
          "lon": 63.11677
        },
        {
          "name": "Tobol",
          "lat": 52.69366,
          "lon": 62.5914
        },
        {
          "name": "Torghay",
          "lat": 49.63389,
          "lon": 63.49806
        },
        {
          "name": "Troyebratskiy",
          "lat": 54.44306,
          "lon": 66.07982
        }
      ]
    },
    {
      "name": "Kyzylorda Region",
      "stateCode": "KZY",
      "lat": 44.6922613,
      "lon": 62.6571885,
      "cities": [
        {
          "name": "Aral",
          "lat": 46.8,
          "lon": 61.66667
        },
        {
          "name": "Ayteke Bi",
          "lat": 45.84607,
          "lon": 62.15264
        },
        {
          "name": "Belköl",
          "lat": 44.81162,
          "lon": 65.58796
        },
        {
          "name": "Dzhalagash",
          "lat": 45.08333,
          "lon": 64.66667
        },
        {
          "name": "Kyzylorda",
          "lat": 44.85278,
          "lon": 65.50917
        },
        {
          "name": "Qazaly",
          "lat": 45.76278,
          "lon": 62.1075
        },
        {
          "name": "Sekseūil",
          "lat": 47.09,
          "lon": 61.15194
        },
        {
          "name": "Shalqīya",
          "lat": 44.00947,
          "lon": 67.41062
        },
        {
          "name": "Shīeli",
          "lat": 44.16882,
          "lon": 66.73887
        },
        {
          "name": "Tasböget",
          "lat": 44.77384,
          "lon": 65.55227
        },
        {
          "name": "Terenozek",
          "lat": 45.05053,
          "lon": 64.98395
        },
        {
          "name": "Yanykurgan",
          "lat": 43.90652,
          "lon": 67.24637
        },
        {
          "name": "Zhosaly",
          "lat": 45.48778,
          "lon": 64.07806
        }
      ]
    },
    {
      "name": "Mangystau Region",
      "stateCode": "MAN",
      "lat": 44.590802,
      "lon": 53.8499508,
      "cities": [
        {
          "name": "Aktau",
          "lat": 43.65,
          "lon": 51.16667
        },
        {
          "name": "Baūtīno",
          "lat": 44.54479,
          "lon": 50.24629
        },
        {
          "name": "Beyneu",
          "lat": 45.31667,
          "lon": 55.2
        },
        {
          "name": "Fort-Shevchenko",
          "lat": 44.50654,
          "lon": 50.26388
        },
        {
          "name": "Munayshy",
          "lat": 43.49111,
          "lon": 52.10861
        },
        {
          "name": "Ömirzaq",
          "lat": 43.59786,
          "lon": 51.24171
        },
        {
          "name": "Sayötesh",
          "lat": 44.32781,
          "lon": 53.53246
        },
        {
          "name": "Shetpe",
          "lat": 44.16667,
          "lon": 52.11667
        },
        {
          "name": "Taūshyq",
          "lat": 44.34678,
          "lon": 51.34932
        },
        {
          "name": "Yeraliyev",
          "lat": 43.18032,
          "lon": 51.68116
        },
        {
          "name": "Zhanaozen",
          "lat": 43.34116,
          "lon": 52.86192
        },
        {
          "name": "Zhetibay",
          "lat": 43.59417,
          "lon": 52.07889
        }
      ]
    },
    {
      "name": "North Kazakhstan Region",
      "stateCode": "SEV",
      "lat": 54.1622066,
      "lon": 69.9387071,
      "cities": [
        {
          "name": "Birlestik",
          "lat": 53.58414,
          "lon": 68.35382
        },
        {
          "name": "Bishkul",
          "lat": 54.77763,
          "lon": 69.09951
        },
        {
          "name": "Bulayevo",
          "lat": 54.90596,
          "lon": 70.44155
        },
        {
          "name": "Būrabay",
          "lat": 53.08382,
          "lon": 70.31379
        },
        {
          "name": "Kzyltu",
          "lat": 53.63589,
          "lon": 72.34079
        },
        {
          "name": "Novoishimskiy",
          "lat": 53.19806,
          "lon": 66.76944
        },
        {
          "name": "Petropavl",
          "lat": 54.86667,
          "lon": 69.15
        },
        {
          "name": "Sergeyevka",
          "lat": 53.88139,
          "lon": 67.40882
        },
        {
          "name": "Smirnovo",
          "lat": 54.5148,
          "lon": 69.42732
        },
        {
          "name": "Taiynsha",
          "lat": 53.84796,
          "lon": 69.76773
        },
        {
          "name": "Talshik",
          "lat": 53.63736,
          "lon": 71.87404
        },
        {
          "name": "Timiryazevo",
          "lat": 53.74947,
          "lon": 66.48852
        },
        {
          "name": "Volodarskoye",
          "lat": 53.2927,
          "lon": 68.105
        },
        {
          "name": "Yavlenka",
          "lat": 54.34525,
          "lon": 68.4574
        }
      ]
    },
    {
      "name": "Nur-Sultan",
      "stateCode": "AST",
      "lat": 51.1605227,
      "lon": 71.4703558,
      "cities": [
        {
          "name": "Nur-Sultan",
          "lat": 51.1801,
          "lon": 71.44598
        }
      ]
    },
    {
      "name": "Pavlodar Region",
      "stateCode": "PAV",
      "lat": 52.2878444,
      "lon": 76.9733453,
      "cities": [
        {
          "name": "Aksu",
          "lat": 52.04023,
          "lon": 76.92748
        },
        {
          "name": "Bayanaul",
          "lat": 50.79304,
          "lon": 75.70123
        },
        {
          "name": "Belogor’ye",
          "lat": 51.52983,
          "lon": 77.47146
        },
        {
          "name": "Ekibastuz",
          "lat": 51.72371,
          "lon": 75.32287
        },
        {
          "name": "Irtyshsk",
          "lat": 53.33365,
          "lon": 75.45775
        },
        {
          "name": "Kalkaman",
          "lat": 51.95349,
          "lon": 76.02723
        },
        {
          "name": "Leninskiy",
          "lat": 52.25346,
          "lon": 76.78211
        },
        {
          "name": "Mayqayyng",
          "lat": 51.45981,
          "lon": 75.80232
        },
        {
          "name": "Pavlodar",
          "lat": 52.28333,
          "lon": 76.96667
        },
        {
          "name": "Qashyr",
          "lat": 53.06649,
          "lon": 76.10489
        },
        {
          "name": "Zhelezinka",
          "lat": 53.5388,
          "lon": 75.31326
        }
      ]
    },
    {
      "name": "Turkestan Region",
      "stateCode": "YUZ",
      "lat": 43.3666958,
      "lon": 68.4094405,
      "cities": [
        {
          "name": "Arys",
          "lat": 42.43015,
          "lon": 68.8087
        },
        {
          "name": "Ashchysay",
          "lat": 43.5537,
          "lon": 68.89792
        },
        {
          "name": "Asyqata",
          "lat": 40.8946,
          "lon": 68.3643
        },
        {
          "name": "Atakent",
          "lat": 40.84782,
          "lon": 68.50643
        },
        {
          "name": "Bayzhansay",
          "lat": 43.16708,
          "lon": 69.91459
        },
        {
          "name": "Belyye Vody",
          "lat": 42.42193,
          "lon": 69.82709
        },
        {
          "name": "Chardara",
          "lat": 41.25832,
          "lon": 67.96991
        },
        {
          "name": "Chayan",
          "lat": 43.03399,
          "lon": 69.38048
        },
        {
          "name": "Chulakkurgan",
          "lat": 43.76453,
          "lon": 69.17856
        },
        {
          "name": "Kantagi",
          "lat": 43.52786,
          "lon": 68.58287
        },
        {
          "name": "Kentau",
          "lat": 43.51672,
          "lon": 68.50463
        },
        {
          "name": "Kokterek",
          "lat": 42.49442,
          "lon": 70.25478
        },
        {
          "name": "Lenger",
          "lat": 42.18152,
          "lon": 69.88582
        },
        {
          "name": "Leninskoye",
          "lat": 41.7564,
          "lon": 69.3839
        },
        {
          "name": "Maqtaaral Aūdany",
          "lat": 40.75,
          "lon": 68.58333
        },
        {
          "name": "Myrzakent",
          "lat": 40.66338,
          "lon": 68.5451
        },
        {
          "name": "Qogham",
          "lat": 42.82774,
          "lon": 68.28074
        },
        {
          "name": "Saryaghash",
          "lat": 41.46042,
          "lon": 69.16791
        },
        {
          "name": "Saryaghash Aūdany",
          "lat": 41.66667,
          "lon": 68.83333
        },
        {
          "name": "Sastobe",
          "lat": 42.5533,
          "lon": 69.99835
        },
        {
          "name": "Sozaq Aūdany",
          "lat": 44.83333,
          "lon": 68.5
        },
        {
          "name": "Temirlanovka",
          "lat": 42.59998,
          "lon": 69.25836
        },
        {
          "name": "Turar Ryskulov",
          "lat": 42.5334,
          "lon": 70.3496
        },
        {
          "name": "Turkestan",
          "lat": 43.29733,
          "lon": 68.25175
        },
        {
          "name": "Tyul’kubas",
          "lat": 42.48578,
          "lon": 70.29601
        },
        {
          "name": "Zhabagly",
          "lat": 42.43781,
          "lon": 70.47841
        }
      ]
    },
    {
      "name": "West Kazakhstan Province",
      "stateCode": "ZAP",
      "lat": 49.5679727,
      "lon": 50.8066616,
      "cities": [
        {
          "name": "Aqsay",
          "lat": 51.1681,
          "lon": 52.99782
        },
        {
          "name": "Burlin",
          "lat": 51.42724,
          "lon": 52.71392
        },
        {
          "name": "Chapaev",
          "lat": 50.2,
          "lon": 51.16667
        },
        {
          "name": "Chingirlau",
          "lat": 51.09878,
          "lon": 54.08426
        },
        {
          "name": "Dzhambeyty",
          "lat": 50.25676,
          "lon": 52.59895
        },
        {
          "name": "Fedorovka",
          "lat": 51.22102,
          "lon": 51.95723
        },
        {
          "name": "Kaztalovka",
          "lat": 49.76612,
          "lon": 48.68903
        },
        {
          "name": "Krūgloozernoe",
          "lat": 51.07854,
          "lon": 51.28992
        },
        {
          "name": "Oral",
          "lat": 51.23333,
          "lon": 51.36667
        },
        {
          "name": "Peremetnoe",
          "lat": 51.19925,
          "lon": 50.85544
        },
        {
          "name": "Saykhin",
          "lat": 48.85611,
          "lon": 46.83361
        },
        {
          "name": "Tasqala",
          "lat": 51.11073,
          "lon": 50.29454
        },
        {
          "name": "Zhänibek",
          "lat": 49.42207,
          "lon": 46.84705
        }
      ]
    }
  ]
}